objectid,facilityid,streetname,address,lifecyclestatus,installdate,legacyid,fireid,firehydid,datasource,plan_1,plan_1_date,plan_2,plan_2_date,owner,comments,id_2017,assoc_valve,type,make,model,year,nozzle_l_size,nozzle_r_size,nozzle_c_size,enabled,created_user,created_date,last_edited_user,last_edited_date,globalid,lon,lat,source_address,source_streetname,address_distance_ft,address_confidence,address_source,address_source_id,nearest_address_label,nearest_address_streetname,nearest_address_lat,nearest_address_lon,nearest_intersection_label,nearest_intersection_distance_ft,address_label_type
2,22KH40,Harrison Avenue,Near Harrison Avenue & Herald Street,IS,,2211740106,,,GIS,,,,,BWSC,SERVICE_AR=SL; CROSS_STRE=2115; METERED_FL=U; PLACEMENT=MIGRATED,22KH40,,,WA,WAWB67P,1976,,,,1,,1177632000000,blundonr,1255478400000,{9137B1D0-8236-5D4E-8E2E-886C8AEE2F32},-71.063424541999950,42.346193025000048,1105 (STREET_FEA 2032),STREET_FEA 2032,189,intersection_preferred_150_plus_ft,boston-sam,445211,333 Harrison Ave,Harrison Ave,42.34575982,-71.06380844,Harrison Avenue & Herald Street,73,nearest_intersection
97,21JH196,Tremont St,590-590A Tremont St,IS,,2110740055,,,MANUAL,,,,,BWSC,SERVICE_AR=SL; CROSS_STRE=4265; METERED_FL=U; PLACEMENT=MIGRATED,21JH196,,,MU,MUCENT,2005,,,,1,,1177632000000,mulline,1224720000000,{B627B282-FFD6-5457-9019-3DDC19DB7257},-71.072949824999966,42.343068905000052,590 (STREET_FEA 4217),STREET_FEA 4217,27,derived_0_50_ft,boston-sam,137712,590-590A Tremont St,Tremont St,42.34306867,-71.07285059,Tremont Street & Upton Street,62,nearest_address
103,21JH10,Worcester St,53 Worcester St,IS,,2110740290,,,MANUAL,,,,,BWSC,SERVICE_AR=SL; CROSS_STRE=3062; METERED_FL=U; PLACEMENT=MIGRATED,21JH10,,,MU,MUCENT,1993,,,,1,,1177632000000,blundonr,1255478400000,{AA855537-8764-5882-AF90-80B2E6E50569},-71.077293772999951,42.338915266000072,55 (STREET_FEA 4636),STREET_FEA 4636,40,derived_0_50_ft,boston-sam,152480,53 Worcester St,Worcester St,42.33897867,-71.07717060,Newland Street & Worcester Street,151,nearest_address
140,21JH262,Shawmut Ave,312-312A Shawmut Ave,IS,249782400000,2110740334,,,MANUAL,,,,,BWSC,SERVICE_AR=SL; CROSS_STRE=3868; METERED_FL=U; PLACEMENT=BlundoNR,21JH262,,,SM,SMH205,1976,,,,1,,1327449600000,BlundoNR,1327449600000,{111D29B0-B046-5EF7-81DC-9AE92924CFFE},-71.070457923999982,42.342090569000050,3 (STREET_FEA 4253),STREET_FEA 4253,48,derived_0_50_ft,boston-sam,169630,312-312A Shawmut Ave,Shawmut Ave,42.34211462,-71.07028331,Shawmut Avenue & Union Park,42,nearest_address
148,21JH52,East Newton Street,Near East Newton Street & Washington Street,IS,,2110740301,,,MANUAL,,,,,BWSC,SERVICE_AR=SL; CROSS_STRE=4400; METERED_FL=U; PLACEMENT=MIGRATED,21JH52,,,WA,WAWB67P,1980,,,,1,,1177632000000,blundonr,1255478400000,{ADA25E28-4110-5119-8FA1-D041D691EF68},-71.073390267999969,42.338759755000069,STREET_FEA 21,STREET_FEA 21,160,intersection_preferred_150_plus_ft,boston-sam,102592,35-36 W Newton St,W Newton St,42.33895730,-71.07392240,East Newton Street & Washington Street,76,nearest_intersection
229,21JH182,Dartmouth St,23 Dartmouth St,IS,,2110740014,,,MANUAL,,,,,BWSC,SERVICE_AR=SL; CROSS_STRE=1266; METERED_FL=U; PLACEMENT=MIGRATED,21JH182,,,MH,MH929,1988,,,,1,,1177632000000,blundonr,1255478400000,{E2A4BA39-A029-5E85-A573-9959F61D1662},-71.073726742999952,42.343722161000073,53 (STREET_FEA 2904),STREET_FEA 2904,60,derived_50_100_ft,boston-sam,46328,23 Dartmouth St,Dartmouth St,42.34372867,-71.07395059,Dartmouth Street & Montgomery Street,119,nearest_address
243,20JH138,Worcester Sq,2 Worcester Sq,IS,,2010740091,,,MANUAL,,,,,BWSC,SERVICE_AR=SL; CROSS_STRE=4400; METERED_FL=U; PLACEMENT=MIGRATED,20JH138,,,MH,MH929,1979,,,,1,,1177632000000,chalmersh,1225152000000,{4DDB91B8-979C-525D-B964-DD6F7DD0ACFF},-71.075082363999968,42.337153312000055,2 (STREET_FEA 4635),STREET_FEA 4635,49,derived_0_50_ft,boston-sam,152216,2 Worcester Sq,Worcester Sq,42.33723367,-71.07493559,Washington Street & Worcester Square,188,nearest_address
258,21JH152,Washington St,1441 Washington St,IS,,2110740166,,,MANUAL,,,,,BWSC,SERVICE_AR=SL; CROSS_STRE=4400; METERED_FL=U; PLACEMENT=MIGRATED,21JH152,,,KE,KEK81-A,1994,,,,1,,1177632000000,blundonr,1255478400000,{EBCB175A-BF7E-5AAB-9277-E09535883A20},-71.071382060999952,42.340908478000074,STREET_FEA 79,STREET_FEA 79,45,derived_0_50_ft,boston-sam,438989,1441 Washington St,Washington St,42.34078591,-71.07134916,Pelham Street & Pelham Terrace,144,nearest_address
259,20JH246,Bio Square Drive,Near Bio Square Drive & East Concord Street,IS,,2010740368,,,GPS,,,,,PRIV,SERVICE_AR=SL; CROSS_STRE=2746; METERED_FL=U; PLACEMENT=MIGRATED,20JH246,,,U,U,,,,,1,,1177632000000,blundonr,1247788800000,{6C76FDE9-743A-5A5D-B089-23FB6F940B2C},-71.070689981999976,42.334000694000053,750 REAR (STREET_FEA 160),STREET_FEA 160,271,intersection_preferred_150_plus_ft,boston-sam,1571,750 Albany St,Albany St,42.33406893,-71.07169286,Bio Square Drive & East Concord Street,113,nearest_intersection
295,21IH164,Wellington St,9 Wellington St,IS,157766400000,2109740169,,,MANUAL,,,,,BWSC,SERVICE_AR=SL; CROSS_STRE=1077; METERED_FL=U; PLACEMENT=MIGRATED,21IH164,,,SM,SMH205,1977,,,,1,,1177632000000,chalmersh,1225238400000,{A92D1B6E-5827-511E-84E0-7FDC31D8C810},-71.081714591999969,42.341583361000062,11 (STREET_FEA 4437),STREET_FEA 4437,39,derived_0_50_ft,boston-sam,147464,9 Wellington St,Wellington St,42.34163867,-71.08159060,Columbus Avenue & Wellington Street,238,nearest_address
304,21JH74,Columbus Sq,8 Columbus Sq,IS,,2110740041,,,MANUAL,,,,,BWSC,SERVICE_AR=SL; CROSS_STRE=1077; METERED_FL=U; PLACEMENT=MIGRATED,21JH74,,,MU,MUCENT,1991,,,,1,,1177632000000,blundonr,1255478400000,{3EDAFC7D-36AE-5061-A02C-B5F2647196C3},-71.077978369999983,42.343267447000073,8 (STREET_FEA 1078),STREET_FEA 1078,34,derived_0_50_ft,boston-sam,36092,8 Columbus Sq,Columbus Sq,42.34318867,-71.07791060,Columbus Avenue & Columbus Square,101,nearest_address
362,22JH192,Castle Ct,18-22 Castle Ct,IS,1059004800000,2210740295,,,GIS,,,,,BWSC,SERVICE_AR=SL; CROSS_STRE=3868; METERED_FL=U; PLACEMENT=MIGRATED,22JH192,,,MU,MUCENT,2000,,,,1,,1177632000000,blundonr,1255478400000,{7503C65F-5045-5DF8-963E-154AA91944DC},-71.067260540999939,42.345162854000080,22 (STREET_FEA 838),STREET_FEA 838,73,derived_50_100_ft,boston-sam,341674,18-22 Castle Ct,Castle Ct,42.34530999,-71.06744309,Castle Court & Emerald Court,66,nearest_address
388,22JH80,Clarendon St,51 Clarendon St,IS,,2210740209,,,GIS,,,,,BWSC,SERVICE_AR=SL; CROSS_STRE=1009; METERED_FL=U; PLACEMENT=MIGRATED,22JH80,,,MU,MUCENT,2000,,,,1,,1177632000000,blundonr,1255478400000,{5A2AF39D-2136-57AE-8CEC-6E3A62CACB03},-71.072853809999970,42.346529453000073,94 OPP (STREET_FEA 897),STREET_FEA 897,29,derived_0_50_ft,boston-sam,163458,51 Clarendon St,Clarendon St,42.34655529,-71.07295525,Chandler Street & Clarendon Street,86,nearest_address
404,20JH258,Bio Square Drive,Near Bio Square Drive & East Concord Street,IS,,2010740380,,,U,,,,,PRIV,SERVICE_AR=U; CROSS_STRE=0; METERED_FL=U; PLACEMENT=blundonr,20JH258,,,U,U,,,,,1,,1249257600000,blundonr,1249257600000,{177AE66E-9D90-5882-9FAC-4EA4F32F4049},-71.070952816999977,42.333927063000033,STREET_FEA 0,STREET_FEA 0,206,intersection_preferred_150_plus_ft,boston-sam,1571,750 Albany St,Albany St,42.33406893,-71.07169286,Bio Square Drive & East Concord Street,166,nearest_intersection
407,22JH54,Lawrence St,40 Lawrence St,IS,,2210740261,,,MANUAL,,,,,BWSC,SERVICE_AR=SL; CROSS_STRE=1009; METERED_FL=U; PLACEMENT=MIGRATED,22JH54,,,SM,SMH200,1974,,,,1,,1177632000000,palaciolv,1224720000000,{B01747AB-9160-58BC-A067-CB54B92A81F5},-71.074006978999932,42.345790602000079,40 (STREET_FEA 2479),STREET_FEA 2479,15,derived_0_50_ft,boston-sam,84662,40 Lawrence St,Lawrence St,42.34574867,-71.07400060,Chandler Street & Columbus Avenue,284,nearest_address
410,22JH42,Columbus Ave,345-351 Columbus Ave,IS,,2210740280,,,MANUAL,,,,,BWSC,SERVICE_AR=SL; CROSS_STRE=4653; METERED_FL=U; PLACEMENT=MIGRATED,22JH42,,,DA,ADB-84-B,1989,,,,1,,1177632000000,palaciolv,1224720000000,{A2C506FE-67FB-5A76-9287-184A50573602},-71.075965815999950,42.345545206000054,363-359 (STREET_FEA 1077),STREET_FEA 1077,39,derived_0_50_ft,boston-sam,163600,345-351 Columbus Ave,Columbus Ave,42.34563266,-71.07587968,Columbus Avenue & Yarmouth Street,69,nearest_address
440,22JH44,Yarmouth St,16 Yarmouth St,IS,,2210740255,,,MANUAL,,,,,BWSC,SERVICE_AR=SL; CROSS_STRE=4228; METERED_FL=U; PLACEMENT=MIGRATED,22JH44,,,WA,WAWB67P,1983,,,,1,,1177632000000,palaciolv,1224720000000,{CAB7D486-DF62-56CA-ABB2-F0142FE11163},-71.076524950999953,42.345914485000037,16 OPP (STREET_FEA 4653),STREET_FEA 4653,76,derived_50_100_ft,boston-sam,153240,16 Yarmouth St,Yarmouth St,42.34578867,-71.07675060,Yarmouth Place & Yarmouth Street,46,nearest_address
442,22JH178,Tremont St,460-498 Tremont St,IS,1056931200000,2210740268,,,MANUAL,,,,,BWSC,SERVICE_AR=SL; CROSS_STRE=1; METERED_FL=U; PLACEMENT=MIGRATED,22JH178,,,MU,MUCENT,1992,,,,1,,1177632000000,blundonr,1224460800000,{7F73A3B3-B985-5618-A84E-D9CDD9AE193B},-71.069472987999973,42.345690072000025,490 (STREET_FEA 4217),STREET_FEA 4217,143,derived_100_150_ft,boston-sam,156997,460-498 Tremont St,Tremont St,42.34597040,-71.06909996,Berkeley Street & East Berkeley Street,178,nearest_address
448,20JH108,E Springfield St,40 E Springfield St,IS,1250035200000,2010740155,,,MANUAL,,,,,BWSC,SERVICE_AR=SL; CROSS_STRE=2032; METERED_FL=U; PLACEMENT=MIGRATED,20JH108,,,KE,KEK81-A,1976,,,,1,,1177632000000,BlundoNR,1291680000000,{2A11F784-E118-5B76-B47F-7F72000A5820},-71.075050727999951,42.336017997000056,40 (STREET_FEA 26),STREET_FEA 26,29,derived_0_50_ft,boston-sam,129853,40 E Springfield St,E Springfield St,42.33607867,-71.07498059,East Springfield Street & Harrison Avenue,250,nearest_address
484,20JH208,E Brookline St,100 E Brookline St,IS,,2010740086,,,MANUAL,,,,,BWSC,SERVICE_AR=SH; CROSS_STRE=160; METERED_FL=U; PLACEMENT=MIGRATED,20JH208,,,DA,ADB-84-B,1990,,,,1,,1177632000000,chalmersh,1225152000000,{6B17537F-9165-53C5-BC9E-493AA4508CBC},-71.069515751999973,42.337198607000062,100 (STREET_FEA 4),STREET_FEA 4,36,derived_0_50_ft,boston-sam,22116,100 E Brookline St,E Brookline St,42.33726867,-71.06942059,East Brookline Street & Thorn Street,107,nearest_address
489,21JH158,Tremont St,610-610A Tremont St,IS,,2110740071,,,MANUAL,,,,,BWSC,SERVICE_AR=SL; CROSS_STRE=79; METERED_FL=U; PLACEMENT=MIGRATED,21JH158,,,DA,ADB-62-B,1980,,,,1,,1177632000000,mulline,1224720000000,{702B4703-3172-5DB5-AD8D-763780634ECE},-71.073796446999950,42.342653606000056,610 (STREET_FEA 4217),STREET_FEA 4217,25,derived_0_50_ft,boston-sam,137780,610-610A Tremont St,Tremont St,42.34258607,-71.07378810,Dartmouth Street & Tremont Street,64,nearest_address
504,22JH198,Tremont St,460-498 Tremont St,IS,1056931200000,2210740230,,,GIS,,,,,BWSC,SERVICE_AR=SL; CROSS_STRE=269; METERED_FL=U; PLACEMENT=MIGRATED,22JH198,,,MU,MUCENT,2000,,,,1,,1177632000000,blundonr,1224460800000,{13EE7A58-2FEC-5B81-93AA-8054EDA0799A},-71.069183448999979,42.346225838000066,450 (STREET_FEA 4217),STREET_FEA 4217,96,derived_50_100_ft,boston-sam,156997,460-498 Tremont St,Tremont St,42.34597040,-71.06909996,Appleton Street & Tremont Street,119,nearest_address
518,21IH116,Tremont St,768-772 Tremont St,IS,,2109740298,,,MANUAL,,,,,BWSC,SERVICE_AR=SL; CROSS_STRE=106; METERED_FL=U; PLACEMENT=MIGRATED,21IH116,,,DA,ADB-84-B,1990,,,,1,,1177632000000,chalmersh,1225238400000,{8B085613-9490-507D-90C9-7C7DA49C1C77},-71.079819744999952,42.339447435000068,768 (STREET_FEA 2746),STREET_FEA 2746,32,derived_0_50_ft,boston-sam,137981,768-772 Tremont St,Tremont St,42.33942638,-71.07970533,Tremont Street & West Springfield Street,113,nearest_address
624,21JH6,W Springfield St,167 W Springfield St,IS,1155513600000,2110740263,,,MANUAL,,,,,BWSC,SERVICE_AR=SL; CROSS_STRE=4217; METERED_FL=U; PLACEMENT=MIGRATED,21JH6,,,MU,MUCENT,1998,,,,1,,1177632000000,connorsm,1238457600000,{6FDB79C5-AF1A-5761-A07D-2D21713C25E5},-71.079097354999988,42.339351032000025,167 (STREET_FEA 106),STREET_FEA 106,38,derived_0_50_ft,boston-sam,129929,167 W Springfield St,W Springfield St,42.33942867,-71.07900060,Ward Way & West Springfield Street,179,nearest_address
638,21JH58,W Newton St,63 W Newton St,IS,315532800000,2110740208,,,MANUAL,,,,,BWSC,SERVICE_AR=SL; CROSS_STRE=3062; METERED_FL=U; PLACEMENT=MIGRATED,21JH58,,,US,USSEN,1980,,,,1,,1177632000000,blundonr,1255478400000,{F561FFE8-61EF-59D7-AB2E-D3BA7925E5DB},-71.075140570999963,42.340226046000055,63 (STREET_FEA 91),STREET_FEA 91,34,derived_0_50_ft,boston-sam,419327,63 W Newton St,W Newton St,42.34029255,-71.07505221,Newland Street & West Newton Street,123,nearest_address
721,21JH146,Harrison Ave,623-635 Harrison Ave,IS,,2110740265,,,MANUAL,,,,,BWSC,SERVICE_AR=SL; CROSS_STRE=11; METERED_FL=U; PLACEMENT=MIGRATED,21JH146,,,MU,MUCENT,1975,,,,1,,1177632000000,blundonr,1255478400000,{6ABB77C0-2AD5-5243-855F-539DEA548504},-71.069837120999978,42.339281980000067,611 (STREET_FEA 2032),STREET_FEA 2032,59,derived_50_100_ft,boston-sam,419363,623-635 Harrison Ave,Harrison Ave,42.33943210,-71.06992224,East Dedham Street & Harrison Avenue,42,nearest_address
739,22JH200,Montgomery St,22 Montgomery St,IS,,2210740366,,,MANUAL,,,,,BWSC,SERVICE_AR=SL; CROSS_STRE=4253; METERED_FL=U; PLACEMENT=MIGRATED,22JH200,,,MH,MH929,1988,,,,1,,1177632000000,blundonr,1255478400000,{480EE510-5826-5BCA-A4FB-9823FEFE6F42},-71.072700919999988,42.344011147000060,22 OPP (STREET_FEA 2904),STREET_FEA 2904,68,derived_50_100_ft,boston-sam,96662,22 Montgomery St,Montgomery St,42.34382867,-71.07275059,Montgomery Street & Union Park,23,nearest_address
762,22JH212,Paul Pl,22-28 Paul Pl,IS,1059955200000,2210740236,,,GIS,,,,,BWSC,SERVICE_AR=SL; CROSS_STRE=3868; METERED_FL=U; PLACEMENT=MIGRATED,22JH212,,,MU,MUCENT,2002,,,,1,,1177632000000,blundonr,1224460800000,{286996D8-B0D3-50C5-879A-6822A7051A31},-71.067271259999984,42.346238404000076,STREET_FEA 4756,STREET_FEA 4756,98,derived_50_100_ft,boston-sam,341662,22-28 Paul Pl,Paul Pl,42.34650505,-71.06722660,Castle Court & Emerald Court,345,nearest_address
815,22JH202,Tremont St,410-438 Tremont St,IS,157766400000,2210740171,,,GIS,,,,,BWSC,SERVICE_AR=SL; CROSS_STRE=2115; METERED_FL=U; PLACEMENT=MIGRATED,22JH202,,,MU,MUCENT,2002,,,,1,,1177632000000,blundonr,1255478400000,{E9CAA432-95D7-54A6-BC74-20F06950AB50},-71.068708897999954,42.347087797000029,410 (STREET_FEA 4217),STREET_FEA 4217,81,derived_50_100_ft,boston-sam,421271,410-438 Tremont St,Tremont St,42.34687191,-71.06863691,Arlington Street & Herald Street,149,nearest_address
817,22JH140,Berkeley Street,Near Berkeley Street & East Berkeley Street,IS,1056931200000,2210740286,,,GIS,,,,,BWSC,SERVICE_AR=SH; CROSS_STRE=1; METERED_FL=U; PLACEMENT=MIGRATED,22JH140,,,DA,ADB-84-B,1990,,,,1,,1177632000000,blundonr,1224460800000,{DE1CAB3F-36EE-5BB4-A3E0-F44108FCDEB6},-71.069632083999977,42.345409846000052,498 (STREET_FEA 2417),STREET_FEA 2417,201,intersection_preferred_150_plus_ft,boston-sam,343908,514-518 Tremont St,Tremont St,42.34488546,-71.06986234,Berkeley Street & East Berkeley Street,71,nearest_intersection
820,22JH196,Emerald Ct,10-18 Emerald Ct,IS,1059955200000,2210740259,,,GIS,,,,,BWSC,SERVICE_AR=SL; CROSS_STRE=1; METERED_FL=U; PLACEMENT=MIGRATED,22JH196,,,MU,MUCENT,2000,,,,1,,1177632000000,blundonr,1224460800000,{F1804922-8344-5EE2-AD95-6642F775E0DF},-71.067696052999963,42.345824957000048,STREET_FEA 4756,STREET_FEA 4756,70,derived_50_100_ft,boston-sam,341669,10-18 Emerald Ct,Emerald Ct,42.34595638,-71.06750424,Castle Court & Emerald Court,250,nearest_address
905,20JH1,Albany St,650 Albany St,IS,,2010740163,,,MANUAL,,,,,BWSC,SERVICE_AR=SH; CROSS_STRE=21; METERED_FL=U; PLACEMENT=MIGRATED,20JH1,,,DA,ADB-84-B,1992,,,,1,,1177632000000,chalmersh,1225152000000,{5F077F5F-5583-5AB1-8F2C-859A62D64B7D},-71.069926554999938,42.335930338000026,650 (STREET_FEA 160),STREET_FEA 160,121,derived_100_150_ft,boston-sam,1563,650 Albany St,Albany St,42.33600467,-71.06948859,Albany Street & East Newton Street,44,nearest_address
963,20JH194,Harrison Ave,750 Harrison Ave,IS,,2010740123,,,MANUAL,,,,,BWSC,SERVICE_AR=SL; CROSS_STRE=21; METERED_FL=U; PLACEMENT=MIGRATED,20JH194,,,MU,MUCENT,1985,,,,1,,1177632000000,chalmersh,1225152000000,{CC17F7CF-6B33-5700-A2CC-9A30180A1B69},-71.072144940999976,42.336683965000077,750 BACK (STREET_FEA 2032),STREET_FEA 2032,84,derived_50_100_ft,boston-sam,166046,750 Harrison Ave,Harrison Ave,42.33689054,-71.07200544,East Newton Street & Harrison Avenue,298,nearest_address
975,21IH192,Greenwich Park,40 Greenwich Park,IS,,2109740077,,,MANUAL,,,,,BWSC,SERVICE_AR=SL; CROSS_STRE=3474; METERED_FL=U; PLACEMENT=MIGRATED,21IH192,,,MU,MUCENT,1979,,,,1,,1177632000000,chalmersh,1225238400000,{F3D7CCF8-5818-54FD-B3C9-C41291995310},-71.081207102999940,42.342974884000057,40 (STREET_FEA 1927),STREET_FEA 1927,38,derived_0_50_ft,boston-sam,66825,40 Greenwich Park,Greenwich Park,42.34288767,-71.08128460,Claremont Street & Greenwich Park,43,nearest_address
1010,20JH146,Washington St,1701 Washington St,IS,,2010740067,,,MANUAL,,,,,BWSC,SERVICE_AR=SL; CROSS_STRE=106; METERED_FL=U; PLACEMENT=MIGRATED,20JH146,,,US,USMET250,1989,,,,1,,1177632000000,blundonr,1461801600000,{EB7AC61D-4952-5177-9F0C-C16CD21752FF},-71.076434093999978,42.337547455000049,STREET_FEA 2549,STREET_FEA 2549,70,derived_50_100_ft,boston-sam,144360,1701 Washington St,Washington St,42.33744867,-71.07621060,Lincoln Place & West Springfield Street,113,nearest_address
1077,21JH188,Union Park St,75 Union Park St,IS,,2110740185,,,GIS,,,,,BWSC,SERVICE_AR=SL; CROSS_STRE=2032; METERED_FL=U; PLACEMENT=MIGRATED,21JH188,,,MU,MUCENT,1980,,,,1,,1177632000000,blundonr,1255478400000,{E48E1FB9-5FA0-5169-9999-25B9582FAF8B},-71.068215444999964,42.340572438000038,75 (STREET_FEA 4253),STREET_FEA 4253,78,derived_50_100_ft,boston-sam,139379,75 Union Park St,Union Park St,42.34060867,-71.06850059,Harrison Avenue & Union Park Street,57,nearest_address
1080,20JH218,Albany St,599 Albany St,IS,659923200000,2010740089,,,MANUAL,,,,,BWSC,SERVICE_AR=SL; CROSS_STRE=5; METERED_FL=U; PLACEMENT=MIGRATED,20JH218,,,US,USMET250,1990,,,,1,,1177632000000,blundonr,1244505600000,{E369BFB8-F7B4-5ADE-B87C-DFC555283838},-71.068499617999976,42.337165187000039,599 (STREET_FEA 160),STREET_FEA 160,52,derived_50_100_ft,boston-sam,1555,599 Albany St,Albany St,42.33726867,-71.06863059,Albany Street & East Canton Street,45,nearest_address
1099,21JH96,Aguadilla St,21 Aguadilla St,IS,,2110740147,,,MANUAL,,,,,BWSC,SERVICE_AR=SL; CROSS_STRE=4217; METERED_FL=U; PLACEMENT=MIGRATED,21JH96,,,DA,ADB-84-B,1990,,,,1,,1177632000000,blundonr,1255478400000,{F5D25ACF-929D-59CF-8028-A34FDD900F60},-71.075338085999988,42.341249291000054,40 OPP (STREET_FEA 145),STREET_FEA 145,34,derived_0_50_ft,boston-sam,370251,21 Aguadilla St,Aguadilla St,42.34130867,-71.07524059,Aguadilla Street & West Brookline Street,187,nearest_address
1109,21JH16,Worcester St,114 Worcester St,IS,,2110740180,,,MANUAL,,,,,BWSC,SERVICE_AR=SL; CROSS_STRE=4217; METERED_FL=U; PLACEMENT=MIGRATED,21JH16,,,MU,MUCENT,1991,,,,1,,1177632000000,blundonr,1255478400000,{53FAACE2-B411-5B3D-B45A-2FB135E6306C},-71.079286576999948,42.340679668000064,114 OPP (STREET_FEA 4636),STREET_FEA 4636,102,derived_100_150_ft,boston-sam,171990,114 Worcester St,Worcester St,42.34062420,-71.07965916,Tremont Street & Worcester Street,240,nearest_address
1133,20JH186,Albany St,650 Albany St,IS,,2010740148,,,MANUAL,,,,,BWSC,SERVICE_AR=SH; CROSS_STRE=4; METERED_FL=U; PLACEMENT=MIGRATED,20JH186,,,MU,MUCENT,1991,,,,1,,1177632000000,chalmersh,1225152000000,{CC84A30F-C336-501C-92B5-F772116EEE88},-71.069602963999955,42.336146815000063,650 (STREET_FEA 160),STREET_FEA 160,60,derived_50_100_ft,boston-sam,1563,650 Albany St,Albany St,42.33600467,-71.06948859,Albany Street & East Newton Street,154,nearest_address
1169,21KH24,E Berkeley St,273 E Berkeley St,IS,,2111740056,,,MANUAL,,,,,BWSC,SERVICE_AR=SL; CROSS_STRE=2256; METERED_FL=U; PLACEMENT=MIGRATED,21KH24,,,MU,MUCENT,1981,,,,1,,1177632000000,blundonr,1255478400000,{2EBC3FBF-30A9-5CA0-9EF2-7C6339E4D802},-71.062754340999959,42.342782076000049,STREET_FEA 160,STREET_FEA 160,99,derived_50_100_ft,boston-sam,155958,273 E Berkeley St,E Berkeley St,42.34279154,-71.06312216,Albany Street & East Berkeley Street,102,nearest_address
1247,20JH106,E Springfield St,60 E Springfield St,IS,1250035200000,2010740181,,,GIS,,,,,BWSC,SERVICE_AR=SL; CROSS_STRE=2032; METERED_FL=U; PLACEMENT=MIGRATED,20JH106,,,KE,KEK81-A,1995,,,,1,,1177632000000,denapolipd,1279584000000,{7598A274-64E0-5139-B0AA-A961D2D71A23},-71.074549742999977,42.335582619000036,60 (STREET_FEA 26),STREET_FEA 26,41,derived_0_50_ft,boston-sam,129907,60 E Springfield St,E Springfield St,42.33566739,-71.07444919,East Springfield Street & Harrison Avenue,43,nearest_address
1377,20JH142,Washington St,1673-1679 Washington St,IS,1065052800000,2010740060,,,MANUAL,,,,,BWSC,SERVICE_AR=SL; CROSS_STRE=4636; METERED_FL=U; PLACEMENT=MIGRATED,20JH142,,,MU,MUCENT,2000,,,,1,,1177632000000,blundonr,1388102400000,{B27B9B90-7953-511D-AAA0-D058DCF32699},-71.075536796999984,42.337675165000064,1675 (STREET_FEA 4400),STREET_FEA 4400,42,derived_0_50_ft,boston-sam,460427,1673-1679 Washington St,Washington St,42.33770742,-71.07568491,Washington Street & Worcester Square,84,nearest_address
1457,21JH42,Tremont St,694A-694 Tremont St,IS,,2110740174,,,MANUAL,,,,,BWSC,SERVICE_AR=SL; CROSS_STRE=3729; METERED_FL=U; PLACEMENT=MIGRATED,21JH42,,,DA,ADB-84-B,1986,,,,1,,1177632000000,blundonr,1255478400000,{D51DBE42-F775-50BE-B1F3-854B47E26DC6},-71.077225270999975,42.340752773000077,694 (STREET_FEA 4217),STREET_FEA 4217,33,derived_0_50_ft,boston-sam,170467,694A-694 Tremont St,Tremont St,42.34066665,-71.07718174,Rutland Square & Rutland Street,68,nearest_address
1489,22JH128,Tremont St,532 Tremont St,IS,978307200000,2210740328,,,MANUAL,,,,,BWSC,SERVICE_AR=SL; CROSS_STRE=2852; METERED_FL=U; PLACEMENT=MIGRATED,22JH128,,,KE,KEK81-A,1994,,,,1,,1177632000000,palaciolv,1224720000000,{D6B0EC02-E0F1-525D-B9CF-4416C216D6AB},-71.070337228999961,42.344542010000055,532 (STREET_FEA 4217),STREET_FEA 4217,26,derived_0_50_ft,boston-sam,170422,532 Tremont St,Tremont St,42.34449047,-71.07027099,Milford Street & Tremont Street,63,nearest_address
1498,22JH64,Dartmouth St,131 Dartmouth St,IS,,2210740204,,,GIS,,,,,BWSC,SERVICE_AR=SL; CROSS_STRE=1077; METERED_FL=U; PLACEMENT=MIGRATED,22JH64,,,MH,MH929,2003,,,,1,,1177632000000,blundonr,1255478400000,{8507A2AE-941B-524B-8CAC-3BEA8A7604CF},-71.075691472999949,42.346602531000030,108 (STREET_FEA 1265),STREET_FEA 1265,90,derived_50_100_ft,boston-sam,46311,131 Dartmouth St,Dartmouth St,42.34658782,-71.07535836,Chandler Street & Columbus Avenue,273,nearest_address
1545,21JH100,Tremont St,667-667A Tremont St,IS,347155200000,2110740118,,,MANUAL,,,,,BWSC,SERVICE_AR=SL; CROSS_STRE=4956; METERED_FL=U; PLACEMENT=MIGRATED,21JH100,,,SM,SMH205,1987,,,,1,,1177632000000,blundonr,1255478400000,{F8AD7B0C-6434-554D-8CA8-D4FAD170B0A2},-71.075905627999987,42.341799676000051,669 (STREET_FEA 4217),STREET_FEA 4217,48,derived_0_50_ft,boston-sam,137871,667-667A Tremont St,Tremont St,42.34192867,-71.07594060,Aguadilla Street & Pembroke Street,49,nearest_address
1557,20JH202,Saint George St,15 Saint George St,IS,,2010740017,,,MANUAL,,,,,BWSC,SERVICE_AR=SL; CROSS_STRE=3752; METERED_FL=U; PLACEMENT=MIGRATED,20JH202,,,KE,KEK81-A,1994,,,,1,,1177632000000,chalmersh,1225152000000,{D2F3CA29-9810-5485-B136-C13F3CAAD0A0},-71.072706915999959,42.338179408000030,STREET_FEA 21,STREET_FEA 21,94,derived_50_100_ft,boston-sam,121053,15 Saint George St,Saint George St,42.33808867,-71.07238059,East Newton Street & Father Francis J. Gilday Street,39,nearest_address
1615,22JH84,Columbus Ave,278-284A Columbus Ave,IS,,2210740177,,,MANUAL,,,,,BWSC,SERVICE_AR=SH; CROSS_STRE=1077; METERED_FL=U; PLACEMENT=MIGRATED,22JH84,,,MU,MUCENT,2003,,,,1,,1177632000000,blundonr,1255478400000,{4B88E344-4456-5E78-AE12-547760C8F5AB},-71.073509268999942,42.347067174000074,78 (STREET_FEA 1009),STREET_FEA 1009,62,derived_50_100_ft,boston-sam,163591,278-284A Columbus Ave,Columbus Ave,42.34691607,-71.07361778,Clarendon Street & Columbus Avenue,67,nearest_address
1620,21JH264,Tremont St,652A-652 Tremont St,IS,,2110740336,,,MANUAL,,,,,BWSC,SERVICE_AR=SL; CROSS_STRE=72; METERED_FL=U; PLACEMENT=BlundoNR,21JH264,,,KE,KEK81-A,1994,,,,1,,1331251200000,BlundoNR,1331251200000,{543799FE-42F6-505C-83D3-4E50D9C4CBF8},-71.075135248999970,42.341985635000071,640 (STREET_FEA 4217),STREET_FEA 4217,84,derived_50_100_ft,boston-sam,170460,652A-652 Tremont St,Tremont St,42.34177838,-71.07526954,Tremont Street & West Brookline Street,55,nearest_address
1629,21JH60,W Newton St,85 W Newton St,IS,,2110740176,,,GIS,,,,,BWSC,SERVICE_AR=SL; CROSS_STRE=5188; METERED_FL=U; PLACEMENT=MIGRATED,21JH60,,,MU,MUCENT,1993,,,,1,,1177632000000,blundonr,1255478400000,{1D537288-E07C-539B-8969-BA62D9DC2820},-71.075757128999953,42.340747212000053,88 OPP (STREET_FEA 91),STREET_FEA 91,81,derived_50_100_ft,boston-sam,102645,85 W Newton St,W Newton St,42.34096740,-71.07581174,Tremont Street & West Newton Street,304,nearest_address
1643,22JH68,Yarmouth Place,Near Yarmouth Place & Yarmouth Street,IS,,2210740179,,,MANUAL,,,,,BWSC,SERVICE_AR=SL; CROSS_STRE=1077; METERED_FL=U; PLACEMENT=MIGRATED,22JH68,,,MU,MUCENT,2000,,,,1,,1177632000000,blundonr,1255478400000,{6ADE345D-09EA-5CFA-A846-15176736456B},-71.075945368999953,42.347028415000068,STREET_FEA 1265,STREET_FEA 1265,225,intersection_preferred_150_plus_ft,boston-sam,46311,131 Dartmouth St,Dartmouth St,42.34658782,-71.07535836,Yarmouth Place & Yarmouth Street,421,nearest_intersection
1662,22JH176,Village Ct,1-9 Village Ct,IS,1180656000000,2210740291,,,MANUAL,,,,,BWSC,SERVICE_AR=SL; CROSS_STRE=1; METERED_FL=U; PLACEMENT=MIGRATED,22JH176,,,KE,KEK81-A,2007,,,,1,,1177632000000,denapolipd,1279497600000,{978C9155-65FD-590E-8265-1F11ACE5AE1C},-71.068914441999937,42.345254150000073,11-19 OPP (STREET_FEA 4309),STREET_FEA 4309,131,derived_100_150_ft,boston-sam,341656,1-9 Village Ct,Village Ct,42.34501610,-71.06855134,East Berkeley Street & Village Court,97,nearest_address
1689,22JH20,Columbus Ave,402 Columbus Ave,IS,,2210740337,,,GIS,,,,,BWSC,SERVICE_AR=SL; CROSS_STRE=269; METERED_FL=U; PLACEMENT=MIGRATED,22JH20,,,MH,MH929,1986,,,,1,,1177632000000,blundonr,1255478400000,{5CBD3108-5A66-5A1E-9DEB-3BFB3479C841},-71.076347133999946,42.344551404000072,200 (STREET_FEA 74),STREET_FEA 74,34,derived_0_50_ft,boston-sam,35675,402 Columbus Ave,Columbus Ave,42.34450867,-71.07646060,Appleton Street & West Canton Street,47,nearest_address
1767,21JH224,Rollins St,1 Rollins St,IS,,2110740128,,,MANUAL,,,,,BWSC,SERVICE_AR=SL; CROSS_STRE=4400; METERED_FL=U; PLACEMENT=MIGRATED,21JH224,,,MU,MUCENT,1991,,,,1,,1177632000000,blundonr,1255478400000,{B7FB3A4E-02BD-5987-B1AF-BFDD2DF8DFED},-71.068592102999958,42.341587793000031,21 (STREET_FEA 4367),STREET_FEA 4367,78,derived_50_100_ft,boston-sam,419675,1 Rollins St,Rollins St,42.34160785,-71.06830322,Waltham Street & Washington Street,58,nearest_address
1816,21IH190,Greenwich Park,20 Greenwich Park,IS,,2109740100,,,MANUAL,,,,,BWSC,SERVICE_AR=SL; CROSS_STRE=1077; METERED_FL=U; PLACEMENT=MIGRATED,21IH190,,,SM,SMH205,1977,,,,1,,1177632000000,chalmersh,1225238400000,{86B970C0-7329-536A-B341-30C4246ADEEA},-71.080619435999949,42.342608740000060,20 (STREET_FEA 1927),STREET_FEA 1927,41,derived_0_50_ft,boston-sam,66774,20 Greenwich Park,Greenwich Park,42.34251867,-71.08071060,Claremont Street & Greenwich Park,238,nearest_address
1822,20KH142,Albany Street,Near Albany Street & Plympton Street,IS,,2011740155,,,GPS,,,,,PRIV,SERVICE_AR=SL; CROSS_STRE=3339; METERED_FL=U; PLACEMENT=denapolipd,20KH142,,,U,U,,,,,1,,1247529600000,denapolipd,1253491200000,{7ED844A2-60AE-5CF6-8C57-D31A2F5FC406},-71.066047267999977,42.337567032000038,520 REAR (STREET_FEA 160),STREET_FEA 160,201,intersection_preferred_150_plus_ft,boston-sam,439440,520 Albany St,Albany St,42.33790186,-71.06664184,Albany Street & Plympton Street,333,nearest_intersection
1835,21JH174,Monsignor Reynolds Way,19 Monsignor Reynolds Way,IS,865123200000,2110740189,,,GIS,,,,,BWSC,SERVICE_AR=SL; CROSS_STRE=4400; METERED_FL=U; PLACEMENT=MIGRATED,21JH174,,,KE,KEK81-A,1997,,,,1,,1177632000000,blundonr,1255478400000,{4D430AB6-29D8-5FC5-9C4D-76F9F0069E85},-71.070164306999970,42.340483198000072,15 (STREET_FEA 2893),STREET_FEA 2893,117,derived_100_150_ft,boston-sam,173629,19 Monsignor Reynolds Way,Monsignor Reynolds Way,42.34019360,-71.07035253,Monsignor Reynolds Way & Pelham Street,179,nearest_address
1887,22JH174,Castle Ct,2-14 Castle Ct,IS,1059955200000,2210740289,,,GIS,,,,,BWSC,SERVICE_AR=SL; CROSS_STRE=1; METERED_FL=U; PLACEMENT=MIGRATED,22JH174,,,MU,MUCENT,2000,,,,1,,1177632000000,blundonr,1255478400000,{832C1083-4180-5DAE-8366-B83E2B0CA733},-71.068012771999975,42.345267007000075,STREET_FEA 4756,STREET_FEA 4756,40,derived_0_50_ft,boston-sam,341673,2-14 Castle Ct,Castle Ct,42.34528268,-71.06786620,Castle Court & East Berkeley Street,217,nearest_address
1891,21JH82,East Brookline Street,Near East Brookline Street & Washington Street,IS,,2110740262,,,MANUAL,,,,,BWSC,SERVICE_AR=SL; CROSS_STRE=4400; METERED_FL=U; PLACEMENT=MIGRATED,21JH82,,,MU,MUCENT,2005,,,,1,,1177632000000,blundonr,1255478400000,{38FC5F5A-5127-5D75-BA11-1911F279626F},-71.072339970999963,42.339368958000080,2 OPP (STREET_FEA 4),STREET_FEA 4,180,intersection_preferred_150_plus_ft,boston-sam,342450,1530 Washington St,Washington St,42.33895507,-71.07270669,East Brookline Street & Washington Street,100,nearest_intersection
1893,21JH84,Washington St,1496-1514 Washington St none,IS,567993600000,2110740248,,,MANUAL,,,,,BWSC,SERVICE_AR=SH; CROSS_STRE=4; METERED_FL=U; PLACEMENT=MIGRATED,21JH84,,,MU,MUCENT,2000,,,,1,,1177632000000,blundonr,1255478400000,{A5FE3EAD-7A98-5E6B-8F06-A7454244DEB8},-71.072252926999965,42.339586809000025,1514 (STREET_FEA 4400),STREET_FEA 4400,132,derived_100_150_ft,boston-sam,343784,1496-1514 Washington St none,Washington St,42.33975994,-71.07182258,East Brookline Street & Washington Street,68,nearest_address
1933,22JH46,Yarmouth St,34 Yarmouth St,IS,,2210740232,,,MANUAL,,,,,BWSC,SERVICE_AR=SL; CROSS_STRE=810; METERED_FL=U; PLACEMENT=MIGRATED,22JH46,,,DA,ADB-84-B,1986,,,,1,,1177632000000,blundonr,1255478400000,{3977129D-DC02-58E7-AF9F-C0EAD6CC4F34},-71.077071613999976,42.346286203000034,34 OPP (STREET_FEA 4653),STREET_FEA 4653,75,derived_50_100_ft,boston-sam,153264,34 Yarmouth St,Yarmouth St,42.34612867,-71.07725060,Yarmouth Place & Yarmouth Street,53,nearest_address
2060,20JH160,E Concord St,72 E Concord St,IS,,2010740151,,,MANUAL,,,,,BWSC,SERVICE_AR=SH; CROSS_STRE=2032; METERED_FL=U; PLACEMENT=MIGRATED,20JH160,,,MU,MUCENT,1992,,,,1,,1177632000000,blundonr,1225324800000,{C52BB980-B604-55B1-B8CD-444C671BCD74},-71.072642798999937,42.336068729000033,78 (STREET_FEA 7),STREET_FEA 7,66,derived_50_100_ft,boston-sam,343246,72 E Concord St,E Concord St,42.33621093,-71.07248796,East Concord Street & Harrison Avenue,218,nearest_address
2097,21KH54,Washington St,1180-1200 Washington St,IS,,2111740052,,,GIS,,,,,BWSC,SERVICE_AR=SL; CROSS_STRE=3286; METERED_FL=U; PLACEMENT=MIGRATED,21KH54,,,DA,ADB-84-B,1990,,,,1,,1177632000000,blundonr,1255478400000,{295CEE86-05B1-541F-ACE1-316FFEE1006A},-71.066476452999950,42.343136154000035,1180 (STREET_FEA 4400),STREET_FEA 4400,63,derived_50_100_ft,boston-sam,143898,1180-1200 Washington St,Washington St,42.34317867,-71.06625059,Perry Street & Washington Street,193,nearest_address
2187,21JH240,Washington St,1293-1317 Washington St,IS,,2110740079,,,MANUAL,,,,,BWSC,SERVICE_AR=SL; CROSS_STRE=3806; METERED_FL=U; PLACEMENT=MIGRATED,21JH240,,,MU,MUCENT,2000,,,,1,,1177632000000,blundonr,1255478400000,{97EBF5C4-8444-5619-BE6B-5C135A82EC34},-71.067734343999973,42.342428253000037,1264 OPP (STREET_FEA 4400),STREET_FEA 4400,119,derived_100_150_ft,boston-sam,144017,1293-1317 Washington St,Washington St,42.34231967,-71.06815259,Savoy Street & Washington Street,118,nearest_address
2200,21IH174,Worcester St,147 Worcester St,IS,,2109740190,,,MANUAL,,,,,BWSC,SERVICE_AR=SL; CROSS_STRE=5699; METERED_FL=U; PLACEMENT=MIGRATED,21IH174,,,US,USSEN,1986,,,,1,,1177632000000,blundonr,1255478400000,{BF1B4E48-3DC1-5B4C-860B-96F9C0A645B7},-71.079865237999968,42.341261242000030,149 (STREET_FEA 4636),STREET_FEA 4636,34,derived_0_50_ft,boston-sam,152380,147 Worcester St,Worcester St,42.34129867,-71.07975060,Claremont Park & Columbus Avenue,208,nearest_address
2203,21JH118,Washington St,1511-1525 Washington St,IS,,2110740212,,,MANUAL,,,,,BWSC,SERVICE_AR=SL; CROSS_STRE=2992; METERED_FL=U; PLACEMENT=MIGRATED,21JH118,,,MU,MUCENT,2000,,,,1,,1177632000000,blundonr,1271808000000,{586711AB-4418-5634-BEC3-0BBDBC8C5D3B},-71.072093849999987,42.340033477000077,1496 OPP (STREET_FEA 4400),STREET_FEA 4400,72,derived_50_100_ft,boston-sam,144256,1511-1525 Washington St,Washington St,42.34001867,-71.07236059,Mystic Street & Washington Street,73,nearest_address
2211,21JH108,Columbus Ave,437-437A Columbus Ave,IS,,2110740007,,,MANUAL,,,,,BWSC,SERVICE_AR=SL; CROSS_STRE=626; METERED_FL=U; PLACEMENT=MIGRATED,21JH108,,,MU,MUCENT,1992,,,,1,,1177632000000,chalmersh,1225238400000,{79D48BD2-0E2E-586B-B64E-FF1A82A3D55B},-71.077963674999978,42.343879026000025,437 (STREET_FEA 1077),STREET_FEA 1077,25,derived_0_50_ft,boston-sam,35717,437-437A Columbus Ave,Columbus Ave,42.34394867,-71.07797060,Braddock Park & Columbus Avenue,59,nearest_address
2213,20JH200,East Newton Street,Near East Newton Street & Father Francis J. Gilday Street,IS,,2010740064,,,MANUAL,,,,,BWSC,SERVICE_AR=SL; CROSS_STRE=7; METERED_FL=U; PLACEMENT=MIGRATED,20JH200,,,KE,KEK81-A,1995,,,,1,,1177632000000,chalmersh,1225152000000,{D3DC1CFA-7E4C-5CB3-B6BC-2AF0AD9A0D00},-71.073250627999982,42.337605113000052,21 (STREET_FEA 6066),STREET_FEA 6066,220,intersection_preferred_150_plus_ft,boston-sam,460236,16 E Concord St,E Concord St,42.33756739,-71.07406500,East Newton Street & Father Francis J. Gilday Street,232,nearest_intersection
2218,21IH162,Columbus Ave,563-567 Columbus Ave,IS,,2109740198,,,MANUAL,,,,,BWSC,SERVICE_AR=SL; CROSS_STRE=4936; METERED_FL=U; PLACEMENT=MIGRATED,21IH162,,,WA,WAWB67P,1987,,,,1,,1177632000000,chalmersh,1225238400000,{E1401AE9-637D-5616-95A2-66DFF8F59D90},-71.081296612999950,42.341169067000067,563 (STREET_FEA 1077),STREET_FEA 1077,53,derived_50_100_ft,boston-sam,35991,563-567 Columbus Ave,Columbus Ave,42.34114867,-71.08149060,Columbus Avenue & Wellington Street,56,nearest_address
2233,22JH12,Holyoke St,35 Holyoke St,IS,,2210740300,,,MANUAL,,,,,BWSC,SERVICE_AR=SL; CROSS_STRE=810; METERED_FL=U; PLACEMENT=MIGRATED,22JH12,,,KE,KEK81-A,1971,,,,1,,1177632000000,palaciolv,1224720000000,{6E5C4DFE-4D40-5F28-B7E3-D3C72E8CBE0E},-71.078343771999982,42.345174573000065,35 (STREET_FEA 2191),STREET_FEA 2191,30,derived_0_50_ft,boston-sam,74938,35 Holyoke St,Holyoke St,42.34521867,-71.07825060,Carleton Street & Holyoke Street,45,nearest_address
2243,21JH64,Tremont St,677 Tremont St,IS,,2110740132,,,MANUAL,,,,,BWSC,SERVICE_AR=SL; CROSS_STRE=91; METERED_FL=U; PLACEMENT=MIGRATED,21JH64,,,SM,SMH205,1976,,,,1,,1177632000000,blundonr,1255478400000,{76780041-2D30-5969-B7D8-132670138194},-71.076431923999962,42.341530625000075,679 (STREET_FEA 4217),STREET_FEA 4217,50,derived_0_50_ft,boston-sam,137904,677 Tremont St,Tremont St,42.34166867,-71.07642060,Tremont Street & West Newton Street,78,nearest_address
2271,22KH808,Traveler St,30-36 Traveler St,IS,1418688000000,2211740280,,,U,,,,,BWSC,SERVICE_AR=SL; CROSS_STRE=4205; METERED_FL=U; PLACEMENT=digiornom,22KH808,,,U,U,,,,,1,,1438905600000,digiornom,1438905600000,{DF614800-E48D-55F0-9C12-D04BB604B1C7},-71.063631858999941,42.344874305000076,300 (STREET_FEA 2032),STREET_FEA 2032,136,derived_100_150_ft,boston-sam,344270,30-36 Traveler St,Traveler St,42.34462453,-71.06325809,Harrison Avenue & Traveler Street,165,nearest_address
2289,21KH44,Fay St,35 Fay St,IS,,2111740058,,,MANUAL,,,,,BWSC,SERVICE_AR=SL; CROSS_STRE=3252; METERED_FL=U; PLACEMENT=MIGRATED,21KH44,,,KE,KEK81-A,1995,,,,1,,1177632000000,blundonr,1255478400000,{C5C0183B-414B-5835-ABE0-7A70365590A4},-71.065259600999980,42.342886530000044,433 (STREET_FEA 2032),STREET_FEA 2032,75,derived_50_100_ft,boston-sam,56838,35 Fay St,Fay St,42.34309096,-71.06522267,Harrison Avenue & Paul Sullivan Way,59,nearest_address
2372,22JH180,Appleton St,5 Appleton St,IS,852076800000,2210740212,,,MANUAL,,,,,BWSC,SERVICE_AR=SL; CROSS_STRE=4217; METERED_FL=U; PLACEMENT=MIGRATED,22JH180,,,KE,KEK81-A,1995,,,,1,,1177632000000,chalmersh,1250208000000,{864E4176-4AA7-52A3-9EBE-C058D445F6AB},-71.069902644999956,42.346501615000079,6 OPP (STREET_FEA 269),STREET_FEA 269,74,derived_50_100_ft,boston-sam,4033,5 Appleton St,Appleton St,42.34669867,-71.06984059,Appleton Street & Tremont Street,209,nearest_address
2448,21JH248,Milford St,10 Milford St,IS,1068163200000,2110740004,,,MANUAL,,,,,BWSC,SERVICE_AR=SL; CROSS_STRE=587; METERED_FL=U; PLACEMENT=MIGRATED,21JH248,,,MU,MUCENT,2000,,,,1,,1177632000000,chalmersh,1225238400000,{524F0824-0598-5C53-ABF3-97F284FD319E},-71.069531546999940,42.343907882000053,10 (STREET_FEA 2852),STREET_FEA 2852,24,derived_0_50_ft,boston-sam,95319,10 Milford St,Milford St,42.34387867,-71.06961059,Bond Street & Milford Street,153,nearest_address
2449,22JH7,Columbus Ave,350-358 Columbus Ave,IS,,2210740275,,,GIS,,,,,BWSC,SERVICE_AR=SL; CROSS_STRE=1266; METERED_FL=U; PLACEMENT=MIGRATED,22JH7,,,MU,MUCENT,1993,,,,1,,1177632000000,blundonr,1255478400000,{D878E66E-C53D-516B-8294-A7EC31729A5A},-71.075404971999944,42.345592980000049,350 (STREET_FEA 1077),STREET_FEA 1077,24,derived_0_50_ft,boston-sam,163601,350-358 Columbus Ave,Columbus Ave,42.34553483,-71.07536048,Dartmouth Street & Lawrence Street,85,nearest_address
2514,20JH120,Massachusetts Ave,586-588 Massachusetts Ave,IS,,2010740073,,,MANUAL,,,,,BWSC,SERVICE_AR=SL; CROSS_STRE=2746; METERED_FL=U; PLACEMENT=MIGRATED,20JH120,,,MU,MUCENT,1994,,,,1,,1177632000000,chalmersh,1225152000000,{EF035A1F-0D13-5ECA-8055-3F4A98F512BE},-71.077948871999979,42.337512864000075,529 (STREET_FEA 3868),STREET_FEA 3868,44,derived_0_50_ft,boston-sam,167495,586-588 Massachusetts Ave,Massachusetts Ave,42.33762180,-71.07787568,Massachusetts Avenue & Shawmut Avenue,43,nearest_address
2598,20JH88,Massachusetts Ave,564 Massachusetts Ave,IS,,2010740032,,,MANUAL,,,,,BWSC,SERVICE_AR=SL; CROSS_STRE=3868; METERED_FL=U; PLACEMENT=MIGRATED,20JH88,,,US,USSEN,1981,,,,1,,1177632000000,chalmersh,1225152000000,{6853A887-72DC-581B-994B-F6DDA5D6F5C6},-71.078430230999970,42.337977878000061,562 (STREET_FEA 2746),STREET_FEA 2746,38,derived_0_50_ft,boston-sam,92413,564 Massachusetts Ave,Massachusetts Ave,42.33797867,-71.07829060,Massachusetts Avenue & Shawmut Avenue,243,nearest_address
2673,22JH10,Holyoke St,17 Holyoke St,IS,,2210740317,,,MANUAL,,,,,BWSC,SERVICE_AR=SL; CROSS_STRE=4872; METERED_FL=U; PLACEMENT=MIGRATED,22JH10,,,KE,KEK81,2012,,,,1,,1177632000000,palaciolv,1224720000000,{899F56E5-ABC4-50FA-A5D4-1680E60396D2},-71.077867505999961,42.344829140000058,19 (STREET_FEA 2191),STREET_FEA 2191,36,derived_0_50_ft,boston-sam,74887,17 Holyoke St,Holyoke St,42.34487867,-71.07775060,Carleton Street & Holyoke Street,215,nearest_address
2711,21KH206,Albany St,480 Albany St,IS,,2111740299,,,GPS,,,,,PRIV,SERVICE_AR=SL; CROSS_STRE=4253; METERED_FL=U; PLACEMENT=blundonr,21KH206,,,MU,MUCENT,2000,,,,1,,1223251200000,blundonr,1271203200000,{1C48E303-4AE5-5D00-A3DF-52841CB47A60},-71.065064924999945,42.339382214000068,480 (STREET_FEA 160),STREET_FEA 160,34,derived_0_50_ft,boston-sam,1543,480 Albany St,Albany St,42.33939359,-71.06493900,Albany Street & Union Park Street,82,nearest_address
2755,21JH120,Shawmut Ave,383-387 Shawmut Ave,IS,,2110740161,,,GIS,,,,,BWSC,SERVICE_AR=SL; CROSS_STRE=3868; METERED_FL=U; PLACEMENT=MIGRATED,21JH120,,,KE,KEK81,2010,,,,1,,1177632000000,blundonr,1255478400000,{100CA5D9-31E4-5416-A39B-BE0A770DF705},-71.072838459999957,42.341026851000038,2 (STREET_FEA 3784),STREET_FEA 3784,37,derived_0_50_ft,boston-sam,126231,383-387 Shawmut Ave,Shawmut Ave,42.34102867,-71.07270059,San Juan Street & Shawmut Avenue,72,nearest_address
2804,22JH2,Braddock Park,21 Braddock Park,IS,,2210740355,,,MANUAL,,,,,BWSC,SERVICE_AR=SL; CROSS_STRE=5689; METERED_FL=U; PLACEMENT=MIGRATED,22JH2,,,US,USSEN,1980,,,,1,,1177632000000,palaciolv,1224806400000,{FDF39D3C-C0E0-5090-B0A0-8E9D62EA325C},-71.078538004999984,42.344315174000030,23 (STREET_FEA 626),STREET_FEA 626,37,derived_0_50_ft,boston-sam,18783,21 Braddock Park,Braddock Park,42.34436867,-71.07842060,Braddock Park & Carleton Street,210,nearest_address
2814,22JH4,Braddock Park,41 Braddock Park,IS,,2210740325,,,MANUAL,,,,,BWSC,SERVICE_AR=SL; CROSS_STRE=810; METERED_FL=U; PLACEMENT=MIGRATED,22JH4,,,US,USSEN,1981,,,,1,,1177632000000,palaciolv,1224806400000,{CF56E509-2B8F-5469-B54F-2E72F6A45BE7},-71.079050281999969,42.344669957000065,43 (STREET_FEA 626),STREET_FEA 626,35,derived_0_50_ft,boston-sam,18820,41 Braddock Park,Braddock Park,42.34473867,-71.07896060,Braddock Park & Carleton Street,30,nearest_address
2847,22JH172,Castle Ct,11-23 Castle Ct,IS,,2210740320,,,MANUAL,,,,,BWSC,SERVICE_AR=SL; CROSS_STRE=1; METERED_FL=U; PLACEMENT=MIGRATED,22JH172,,,KE,KEK81-A,1994,,,,1,,1177632000000,palaciolv,1224720000000,{B3BE0299-8195-5614-9198-E8EFDFB72084},-71.066940393999971,42.344767302000037,15 (STREET_FEA 3868),STREET_FEA 3868,66,derived_50_100_ft,boston-sam,341666,11-23 Castle Ct,Castle Ct,42.34492858,-71.06705074,East Berkeley Street & Shawmut Avenue,167,nearest_address
2853,21IH188,Columbus Ave,511 Columbus Ave,IS,,2109740118,,,MANUAL,,,,,BWSC,SERVICE_AR=SL; CROSS_STRE=1927; METERED_FL=U; PLACEMENT=MIGRATED,21IH188,,,MU,MUCENT,1968,,,,1,,1177632000000,chalmersh,1225238400000,{AE902D15-389D-5BD1-9F27-2843B6E90460},-71.079914712999937,42.342284387000063,511 (STREET_FEA 1077),STREET_FEA 1077,43,derived_0_50_ft,boston-sam,35818,511 Columbus Ave,Columbus Ave,42.34239867,-71.07996060,Columbus Avenue & Concord Square,56,nearest_address
2873,21JH214,Union Park,22 Union Park,IS,,2110740074,,,MANUAL,,,,,BWSC,SERVICE_AR=SL; CROSS_STRE=4253; METERED_FL=U; PLACEMENT=MIGRATED,21JH214,,,SM,SMH205,1976,,,,1,,1177632000000,blundonr,1255478400000,{7AEFB28F-884E-5325-93A7-83095B4D9C2C},-71.071449046999987,42.342622700000049,22 (STREET_FEA 4249),STREET_FEA 4249,12,derived_0_50_ft,boston-sam,139117,22 Union Park,Union Park,42.34260902,-71.07148781,Shawmut Avenue & Union Park,288,nearest_address
2900,21JH86,East Brookline Street,Near East Brookline Street & Washington Street,IS,1065052800000,2110740249,,,MANUAL,,,,,BWSC,SERVICE_AR=SL; CROSS_STRE=72; METERED_FL=U; PLACEMENT=MIGRATED,21JH86,,,MU,MUCENT,2000,,,,1,,1177632000000,blundonr,1388016000000,{0A70B857-3286-5BDF-B1BD-B56544E19D6A},-71.072789074999946,42.339585089000025,STREET_FEA 4400,STREET_FEA 4400,163,intersection_preferred_150_plus_ft,boston-sam,341541,1535 Washington St,Washington St,42.33952499,-71.07338811,East Brookline Street & Washington Street,77,nearest_intersection
2969,20KH118,Albany Street,Near Albany Street & East Dedham Street,IS,,2011740131,,,MANUAL,,,,,PRIV,SERVICE_AR=SL; CROSS_STRE=0; METERED_FL=U; PLACEMENT=MIGRATED,20KH118,,,KE,KEK81-A,1994,,,,1,,1177632000000,blundonr,1244419200000,{34B675FC-964F-57F8-B6C8-18D89C2F83C7},-71.066006773999959,42.336474467000073,STREET_FEA 2256,STREET_FEA 2256,217,intersection_preferred_150_plus_ft,boston-sam,1560,610 Albany St,Albany St,42.33613842,-71.06667516,Albany Street & East Dedham Street,618,nearest_intersection
2974,21JH236,Waltham St,79 Waltham St,IS,,2110740036,,,GIS,,,,,BWSC,SERVICE_AR=SL; CROSS_STRE=3597; METERED_FL=U; PLACEMENT=MIGRATED,21JH236,,,MU,MUCENT,1991,,,,1,,1177632000000,blundonr,1255478400000,{2F861BFF-3433-5C20-A402-5236274A53E4},-71.070660619999956,42.343321019000030,81 (STREET_FEA 4367),STREET_FEA 4367,35,derived_0_50_ft,boston-sam,142453,79 Waltham St,Waltham St,42.34335867,-71.07054059,Ringgold Street & Waltham Street,177,nearest_address
3006,22JH130,Milford St,34 Milford St,IS,1068163200000,2210740345,,,MANUAL,,,,,BWSC,SERVICE_AR=SL; CROSS_STRE=4217; METERED_FL=U; PLACEMENT=MIGRATED,22JH130,,,MU,MUCENT,1991,,,,1,,1177632000000,blundonr,1255478400000,{C6B6A5A6-24C3-5F87-86BE-211EE360DE9C},-71.070353613999941,42.344327821000036,34 (STREET_FEA 2852),STREET_FEA 2852,24,derived_0_50_ft,boston-sam,95388,34 Milford St,Milford St,42.34426867,-71.07039059,Milford Street & Tremont Street,99,nearest_address
3014,21JH160,Dartmouth St,12 Dartmouth St,IS,,2110740044,,,MANUAL,,,,,BWSC,SERVICE_AR=SL; CROSS_STRE=2904; METERED_FL=U; PLACEMENT=MIGRATED,21JH160,,,MH,MH929,1986,,,,1,,1177632000000,blundonr,1255478400000,{DFB9AA16-DEEB-575B-ABBD-10933CAA5E71},-71.074037862999944,42.343237614000031,12 (STREET_FEA 1266),STREET_FEA 1266,33,derived_0_50_ft,boston-sam,46305,12 Dartmouth St,Dartmouth St,42.34319867,-71.07415059,Dartmouth Street & Montgomery Street,118,nearest_address
3022,21IH206,Columbus Ave,534-536 Columbus Ave,IS,1163030400000,2109740361,,,MANUAL,,,,,BWSC,SERVICE_AR=SL; CROSS_STRE=4636; METERED_FL=U; PLACEMENT=denapolipd,21IH206,,,MU,MUCENT,2005,,,,1,,1193356800000,blundonr,1224460800000,{B5944877-96DC-57D0-8540-FCA45F75E83F},-71.080310912999948,42.341575724000052,534 (STREET_FEA 1077),STREET_FEA 1077,42,derived_0_50_ft,boston-sam,163637,534-536 Columbus Ave,Columbus Ave,42.34155761,-71.08015784,Claremont Park & Columbus Avenue,45,nearest_address
3053,21IH198,W Rutland Sq,68 W Rutland Sq,IS,,2109740055,,,MANUAL,,,,,BWSC,SERVICE_AR=SL; CROSS_STRE=1077; METERED_FL=U; PLACEMENT=MIGRATED,21IH198,,,MU,MUCENT,1993,,,,1,,1177632000000,chalmersh,1225238400000,{630FC1A8-EA3A-5B51-B310-16DCCE4FCD65},-71.079946275999987,42.343107249000070,4 (STREET_FEA 5081),STREET_FEA 5081,40,derived_0_50_ft,boston-sam,120266,68 W Rutland Sq,W Rutland Sq,42.34303867,-71.08006060,Columbus Avenue & Rutland Square,261,nearest_address
3064,22JH148,Berkeley St,50-52 Berkeley St,IS,694224000000,2210740231,,,GIS,,,,,BWSC,SERVICE_AR=SL; CROSS_STRE=269; METERED_FL=U; PLACEMENT=MIGRATED,22JH148,,,DA,ADB-84-B,1990,,,,1,,1177632000000,blundonr,1255478400000,{B20B156B-1206-556A-AD03-E666EA2FC075},-71.070841499999972,42.346243171000026,50 (STREET_FEA 511),STREET_FEA 511,21,derived_0_50_ft,boston-sam,15029,50-52 Berkeley St,Berkeley St,42.34629967,-71.07086059,Appleton Street & Berkeley Street,60,nearest_address
3089,21JH18,W Concord St,95 W Concord St,IS,,2110740294,,,MANUAL,,,,,BWSC,SERVICE_AR=SL; CROSS_STRE=76; METERED_FL=U; PLACEMENT=MIGRATED,21JH18,,,MU,MUCENT,1992,,,,1,,1177632000000,blundonr,1255478400000,{60BF008D-0E8C-525E-B875-0B7656F0B22C},-71.075875287999963,42.338877857000057,477 (STREET_FEA 3868),STREET_FEA 3868,24,derived_0_50_ft,boston-sam,171517,95 W Concord St,W Concord St,42.33893694,-71.07591232,Shawmut Avenue & West Concord Street,56,nearest_address
3131,21JH72,W Newton St,170 W Newton St,IS,,2110740060,,,MANUAL,,,,,BWSC,SERVICE_AR=SL; CROSS_STRE=1077; METERED_FL=U; PLACEMENT=MIGRATED,21JH72,,,MU,MUCENT,1976,,,,1,,1177632000000,blundonr,1255478400000,{39E45F55-8BF2-538A-B438-17313467FAA3},-71.078077343999951,42.342799086000070,167 OPP (STREET_FEA 91),STREET_FEA 91,49,derived_0_50_ft,boston-sam,102440,170 W Newton St,W Newton St,42.34279867,-71.07826060,Columbus Avenue & West Newton Street,189,nearest_address
3241,22JH108,Appleton St,35 Appleton St,IS,,2210740249,,,GIS,,,,,BWSC,SERVICE_AR=SL; CROSS_STRE=511; METERED_FL=U; PLACEMENT=MIGRATED,22JH108,,,SM,SMH205,1974,,,,1,,1177632000000,blundonr,1255478400000,{5C267E9D-51B4-510B-9909-FDED67089206},-71.071761196999944,42.345997943000043,35 (STREET_FEA 269),STREET_FEA 269,34,derived_0_50_ft,boston-sam,4012,35 Appleton St,Appleton St,42.34608867,-71.07179059,Chandler Street & Saint Charles Street,273,nearest_address
3329,21JH244,Shawmut Ave,253A-253 Shawmut Ave,IS,,2110740032,,,MANUAL,,,,,BWSC,SERVICE_AR=SL; CROSS_STRE=2852; METERED_FL=U; PLACEMENT=MIGRATED,21JH244,,,MU,MUCENT,2000,,,,1,,1177632000000,chalmersh,1225238400000,{A01584A4-BFD1-5968-9F98-BADFC33D3F7A},-71.068601923999950,42.343397429000049,253 (STREET_FEA 3868),STREET_FEA 3868,42,derived_0_50_ft,boston-sam,169620,253A-253 Shawmut Ave,Shawmut Ave,42.34346816,-71.06872453,Bradford Street & Milford Street,45,nearest_address
3454,20JH126,E Concord St,91 E Concord St,IS,659923200000,2010740236,,,MANUAL,,,,,BWSC,SERVICE_AR=SL; CROSS_STRE=7; METERED_FL=U; PLACEMENT=MIGRATED,20JH126,,,US,USMET250,1990,,,,1,,1177632000000,chalmersh,1225152000000,{8AE6278C-8B85-56E9-8975-D4A4EA916C29},-71.071887343999947,42.334757854000031,750 OPP (STREET_FEA 160),STREET_FEA 160,81,derived_50_100_ft,boston-sam,352750,91 E Concord St,E Concord St,42.33478301,-71.07218581,Albany Street & East Concord Street,144,nearest_address
3457,20JH239,E Brookline St,84 E Brookline St,IS,,2010740361,,,MANUAL,,,,,BWSC,SERVICE_AR=NH; CROSS_STRE=251; METERED_FL=U; PLACEMENT=MIGRATED,20JH239,,,MU,MUCENT,2000,,,,1,,1177632000000,chalmersh,1225238400000,{87834E9A-D8DD-5A13-A2F1-9F2A7C3FC221},-71.069916184999954,42.337538379000080,82 (STREET_FEA 4),STREET_FEA 4,34,derived_0_50_ft,boston-sam,22183,84 E Brookline St,E Brookline St,42.33760867,-71.06983059,East Brookline Street & Thorn Street,269,nearest_address
3586,21KH199,Albany Street,Near Albany Street & Frontage Road Southbound,IS,1066003200000,2111740292,,,U,,,,,PRIV,SERVICE_AR=SL; CROSS_STRE=0; METERED_FL=U; PLACEMENT=MIGRATED,21KH199,,,U,U,,,,,1,,1177632000000,blundonr,1282694400000,{6C28DE57-3AB4-55C7-9F11-4B451D5A8D9D},-71.063569275999953,42.339967468000054,STREET_FEA 593,STREET_FEA 593,289,intersection_preferred_150_plus_ft,boston-sam,61029,300 Frontage Rd,Frontage Rd,42.33965479,-71.06258331,Albany Street & Frontage Road Southbound,151,nearest_intersection
3620,20JH140,Washington St,1658 Washington St,IS,,2010740077,,,MANUAL,,,,,BWSC,SERVICE_AR=SH; CROSS_STRE=4635; METERED_FL=U; PLACEMENT=MIGRATED,20JH140,,,KE,KEK81-A,2000,,,,1,,1177632000000,blundonr,1388102400000,{53C7AC65-8581-55EC-B274-CB5008F714B1},-71.075303950999967,42.337575994000076,1664 (STREET_FEA 4400),STREET_FEA 4400,48,derived_0_50_ft,boston-sam,144308,1658 Washington St,Washington St,42.33757758,-71.07512633,Washington Street & Worcester Square,102,nearest_address
3723,22JH111,Chandler St,67-69 Chandler St,IS,,2210740189,,,MANUAL,,,,,BWSC,SERVICE_AR=SL; CROSS_STRE=3747; METERED_FL=U; PLACEMENT=MIGRATED,22JH111,,,SM,SMH205,1975,,,,1,,1177632000000,blundonr,1255478400000,{707285CB-BC6B-52BB-9CB4-89CAB9459C79},-71.071936461999940,42.346783378000055,65 (STREET_FEA 897),STREET_FEA 897,36,derived_0_50_ft,boston-sam,163129,67-69 Chandler St,Chandler St,42.34677843,-71.07206957,Chandler Street & Saint Charles Street,32,nearest_address
3745,21JH130,Tremont St,637-637A Tremont St,IS,788918400000,2110740092,,,MANUAL,,,,,BWSC,SERVICE_AR=SL; CROSS_STRE=74; METERED_FL=U; PLACEMENT=MIGRATED,21JH130,,,MU,MUCENT,1976,,,,1,,1177632000000,blundonr,1255478400000,{9D6E5A6C-EE2D-5BFB-B4ED-4D6E5B94F236},-71.075000217999957,42.342283921000046,637 (STREET_FEA 4217),STREET_FEA 4217,39,derived_0_50_ft,boston-sam,137828,637-637A Tremont St,Tremont St,42.34236867,-71.07509059,Aguadilla Street & Tremont Street,117,nearest_address
3748,21JH12,Worcester St,81 Worcester St,IS,,2110740253,,,GIS,,,,,BWSC,SERVICE_AR=SL; CROSS_STRE=5188; METERED_FL=U; PLACEMENT=MIGRATED,21JH12,,,MU,MUCENT,1993,,,,1,,1177632000000,blundonr,1255478400000,{4906969F-EE19-500C-8C3E-B232097712C9},-71.078016875999936,42.339508938000051,81 (STREET_FEA 4636),STREET_FEA 4636,46,derived_0_50_ft,boston-sam,152537,81 Worcester St,Worcester St,42.33960867,-71.07791060,Ward Way & Worcester Street,29,nearest_address
3752,22JH247,Tremont St,410-438 Tremont St,IS,1056931200000,2210740372,,,MANUAL,,,,,BWSC,SERVICE_AR=SH; CROSS_STRE=2115; METERED_FL=U; PLACEMENT=MIGRATED,22JH247,,,MU,MUCENT,2002,,,,1,,1177632000000,palaciolv,1224806400000,{B072FDD9-2B0E-5BD7-B91A-F4F77731DE8C},-71.068718393999973,42.347022243000026,412 (STREET_FEA 4217),STREET_FEA 4217,59,derived_50_100_ft,boston-sam,421271,410-438 Tremont St,Tremont St,42.34687191,-71.06863691,Arlington Street & Herald Street,173,nearest_address
3827,21JH78,W Newton St,201 W Newton St,IS,,2110740018,,,MANUAL,,,,,BWSC,SERVICE_AR=SL; CROSS_STRE=1077; METERED_FL=U; PLACEMENT=MIGRATED,21JH78,,,MU,MUCENT,1993,,,,1,,1177632000000,chalmersh,1225238400000,{D0CB1D22-4A7A-552D-9190-A10CB43ECEAE},-71.079194850999954,42.343699969000056,201 (STREET_FEA 90),STREET_FEA 90,42,derived_0_50_ft,boston-sam,102458,201 W Newton St,W Newton St,42.34379867,-71.07911060,Columbus Avenue & West Newton Street,256,nearest_address
3908,22KH106,Albany St,213 Albany St,IS,865555200000,2211740132,,,GPS,,,,,BWSC,SERVICE_AR=SL; CROSS_STRE=2115; METERED_FL=U; PLACEMENT=MIGRATED,22KH106,,,MU,MUCENT,2002,,,,1,,1177632000000,palaciolv,1224806400000,{1DF113C3-0C1E-5B0F-A0E2-357D8092D99D},-71.061483835999979,42.345702172000074,217 (STREET_FEA 160),STREET_FEA 160,59,derived_50_100_ft,boston-sam,437716,213 Albany St,Albany St,42.34586372,-71.06147674,Albany Street & Herald Street,106,nearest_address
3909,20JH195,Harrison Ave,746-748 Harrison Ave,IS,,2010740075,,,MANUAL,,,,,BWSC,SERVICE_AR=SH; CROSS_STRE=21; METERED_FL=U; PLACEMENT=MIGRATED,20JH195,,,MU,MUCENT,2005,,,,1,,1177632000000,blundonr,1225324800000,{A3E72089-2DF8-5014-B3C6-243BED06171E},-71.072112218999962,42.337480185000061,744 OPP (STREET_FEA 2032),STREET_FEA 2032,89,derived_50_100_ft,boston-sam,341868,746-748 Harrison Ave,Harrison Ave,42.33725972,-71.07197045,East Newton Street & Harrison Avenue,36,nearest_address
3920,21JH170,Harrison Ave,618 Harrison Ave,IS,,2110740225,,,GIS,,,,,BWSC,SERVICE_AR=SL; CROSS_STRE=2658; METERED_FL=U; PLACEMENT=MIGRATED,21JH170,,,KE,KEK81-A,1995,,,,1,,1177632000000,blundonr,1255478400000,{D423D75A-1D41-5469-957D-6E6EE6F72257},-71.068295817999967,42.339894247000075,27 (STREET_FEA 4376),STREET_FEA 4376,89,derived_50_100_ft,boston-sam,166044,618 Harrison Ave,Harrison Ave,42.34003346,-71.06856648,Malden Street & Wareham Street,96,nearest_address
3937,21JH30,Concord Sq,43 Concord Sq,IS,,2110740112,,,MANUAL,,,,,BWSC,SERVICE_AR=SL; CROSS_STRE=5187; METERED_FL=U; PLACEMENT=MIGRATED,21JH30,,,MU,MUCENT,1976,,,,1,,1177632000000,blundonr,1255478400000,{C70755B6-A73C-5EC9-88F1-4BAC5FC74ED5},-71.079274726999984,42.341879326000026,43 (STREET_FEA 1099),STREET_FEA 1099,42,derived_0_50_ft,boston-sam,41682,43 Concord Sq,Concord Sq,42.34193867,-71.07914060,Columbus Avenue & Concord Square,176,nearest_address
3939,21JH88,Shawmut Ave,400 Shawmut Ave,IS,,2110740216,,,MANUAL,,,,,BWSC,SERVICE_AR=SL; CROSS_STRE=3868; METERED_FL=U; PLACEMENT=MIGRATED,21JH88,,,MU,MUCENT,1979,,,,1,,1177632000000,blundonr,1255478400000,{3E99D310-D29B-5396-B4AF-1F7335F359EF},-71.073103436999986,42.340032106000081,63-71 OPP (STREET_FEA 72),STREET_FEA 72,135,derived_100_150_ft,boston-sam,169641,400 Shawmut Ave,Shawmut Ave,42.34039659,-71.07301784,Shawmut Avenue & West Brookline Street,160,nearest_address
3977,21KH22,Albany St,365 Albany St,IS,,2111740097,,,GIS,,,,,BWSC,SERVICE_AR=SL; CROSS_STRE=3252; METERED_FL=U; PLACEMENT=MIGRATED,21KH22,,,MU,MUCENT,2003,,,,1,,1177632000000,blundonr,1271808000000,{317F203F-EC37-5B9C-9679-DFDFDC704BDC},-71.062991259999933,42.342250178000029,365 (STREET_FEA 160),STREET_FEA 160,36,derived_0_50_ft,boston-sam,161412,365 Albany St,Albany St,42.34231494,-71.06309466,Albany Street & Paul Sullivan Way,54,nearest_address
4026,20KH127,Albany Street,Near Albany Street & Wareham Street,IS,1066003200000,2011740140,,,GPS,,,,,PRIV,SERVICE_AR=SL; CROSS_STRE=4376; METERED_FL=U; PLACEMENT=MIGRATED,20KH127,,,KE,KEK81-D,2005,,,,1,,1177632000000,blundonr,1244419200000,{E0B97F1D-C300-512E-9E69-AD9E4C8136E4},-71.065367645999970,42.337979370000028,500 BACK (STREET_FEA 160),STREET_FEA 160,178,intersection_preferred_150_plus_ft,boston-sam,1544,500 Albany St,Albany St,42.33826867,-71.06590059,Albany Street & Wareham Street,353,nearest_intersection
4028,21IH166,Wellington St,29-33 Wellington St,IS,,2109740145,,,MANUAL,,,,,BWSC,SERVICE_AR=SL; CROSS_STRE=1005; METERED_FL=U; PLACEMENT=MIGRATED,21IH166,,,US,USSEN,1981,,,,1,,1177632000000,blundonr,1255478400000,{2B43FEDB-5F6F-51FE-A2F1-339F191180CD},-71.082345176999979,42.342016109000042,29-33 (STREET_FEA 4437),STREET_FEA 4437,40,derived_0_50_ft,boston-sam,147433,29-33 Wellington St,Wellington St,42.34203867,-71.08220060,Claremont Street & Wellington Street,29,nearest_address
4059,21JH48,Rutland Sq,35 Rutland Sq,IS,,2110740109,,,MANUAL,,,,,BWSC,SERVICE_AR=SL; CROSS_STRE=5187; METERED_FL=U; PLACEMENT=MIGRATED,21JH48,,,MH,MH929,1976,,,,1,,1177632000000,blundonr,1255478400000,{31B259F8-478E-5BE2-A25E-5CF5D11EB218},-71.078190567999968,42.341963266000050,35 (STREET_FEA 3728),STREET_FEA 3728,36,derived_0_50_ft,boston-sam,120078,35 Rutland Sq,Rutland Sq,42.34201867,-71.07808060,Columbus Avenue & Rutland Square,370,nearest_address
4091,22JH106,Gray St,31 Gray St,IS,,2210740277,,,MANUAL,,,,,BWSC,SERVICE_AR=SL; CROSS_STRE=1009; METERED_FL=U; PLACEMENT=MIGRATED,22JH106,,,KE,KEK81-A,1995,,,,1,,1177632000000,palaciolv,1224720000000,{16E183CA-2616-5A63-9636-EC9E49430639},-71.071487885999943,42.345616488000076,31 (STREET_FEA 1902),STREET_FEA 1902,18,derived_0_50_ft,boston-sam,66057,31 Gray St,Gray St,42.34565867,-71.07152059,Berkeley Street & Gray Street,299,nearest_address
4138,21KH40,Harrison Ave,485-495 Harrison Ave,IS,,2111740117,,,GIS,,,,,BWSC,SERVICE_AR=SL; CROSS_STRE=3515; METERED_FL=U; PLACEMENT=MIGRATED,21KH40,,,MU,MUCENT,1978,,,,1,,1177632000000,blundonr,1255478400000,{25948197-B74C-5E26-8C00-70ED0608BF66},-71.066526838999948,42.341876312000068,491-497 (STREET_FEA 2032),STREET_FEA 2032,48,derived_0_50_ft,boston-sam,69845,485-495 Harrison Ave,Harrison Ave,42.34192867,-71.06669059,Harrison Avenue & Randolph Street,37,nearest_address
4146,20JH132,Harrison Ave,820 Harrison Ave,IS,,2010740191,,,U,,,,,PRIV,SERVICE_AR=SH; CROSS_STRE=0; METERED_FL=U; PLACEMENT=MIGRATED,20JH132,,,BF,U,,,,,1,,1177632000000,blundonr,1244419200000,{3F68A864-BF49-5754-AAFF-B7BA15480C8B},-71.073365090999971,42.335463560000051,STREET_FEA 2032,STREET_FEA 2032,120,derived_100_150_ft,boston-sam,355808,820 Harrison Ave,Harrison Ave,42.33546721,-71.07381070,Harrison Avenue & Worcester Square,230,nearest_address
4174,21JH181,Montgomery St,73 Montgomery St,IS,,2110740027,,,MANUAL,,,,,BWSC,SERVICE_AR=SL; CROSS_STRE=1266; METERED_FL=U; PLACEMENT=MIGRATED,21JH181,,,MU,MUCENT,1992,,,,1,,1177632000000,chalmersh,1225238400000,{3113A3B2-71CA-5DF0-9609-E043B0BBC1D4},-71.074724214999947,42.343450501000063,73 (STREET_FEA 2904),STREET_FEA 2904,40,derived_0_50_ft,boston-sam,96700,73 Montgomery St,Montgomery St,42.34355867,-71.07475059,Dartmouth Street & Montgomery Street,170,nearest_address
4187,21IH158,W Springfield St,203 W Springfield St,IS,,2109740253,,,MANUAL,,,,,BWSC,SERVICE_AR=SL; CROSS_STRE=7630; METERED_FL=U; PLACEMENT=MIGRATED,21IH158,,,MU,MUCENT,1976,,,,1,,1177632000000,blundonr,1244505600000,{DA5070E0-876F-5652-AC32-F6D93E05182F},-71.080160054999965,42.340380690000075,203 (STREET_FEA 106),STREET_FEA 106,28,derived_0_50_ft,boston-sam,129980,203 W Springfield St,W Springfield St,42.34042867,-71.08008060,Tremont Street & West Springfield Street,288,nearest_address
4196,21JH162,Plympton St,42 Plympton St,IS,942969600000,2110740308,,,MANUAL,,,,,BWSC,SERVICE_AR=SL; CROSS_STRE=160; METERED_FL=U; PLACEMENT=MIGRATED,21JH162,,,KE,KEK81-A,1997,,,,1,,1177632000000,blundonr,1255478400000,{F93CD27B-5A36-5C7D-B6CA-424CEBEF8FA4},-71.067900439999960,42.338669998000057,44 OPP (STREET_FEA 3339),STREET_FEA 3339,88,derived_50_100_ft,boston-sam,111423,42 Plympton St,Plympton St,42.33890867,-71.06786059,East Dedham Street & Thorn Street,270,nearest_address
4253,21JH220,Harrison Ave,535 Harrison Ave,IS,378691200000,2110740159,,,MANUAL,,,,,BWSC,SERVICE_AR=SL; CROSS_STRE=3662; METERED_FL=U; PLACEMENT=MIGRATED,21JH220,,,KE,KEK81-A,1995,,,,1,,1177632000000,blundonr,1255478400000,{C374C3C5-9E60-554E-B9AB-A6205800CC64},-71.067549819999954,42.341095120000034,560 OPP (STREET_FEA 2032),STREET_FEA 2032,52,derived_50_100_ft,boston-sam,348401,535 Harrison Ave,Harrison Ave,42.34109401,-71.06774236,Harrison Avenue & Rollins Street,36,nearest_address
4279,22JH214,Tremont St,450 Tremont St,IS,1060214400000,2210740369,,,MANUAL,,,,,BWSC,SERVICE_AR=SL; CROSS_STRE=4756; METERED_FL=U; PLACEMENT=MIGRATED,22JH214,,,MU,MUCENT,2002,,,,1,,1177632000000,blundonr,1224460800000,{2961C4A5-E292-5BBD-A43F-37FEA1FB85EC},-71.068035239999972,42.346423422000044,48 BACK (STREET_FEA 3249),STREET_FEA 3249,50,derived_0_50_ft,boston-sam,341452,450 Tremont St,Tremont St,42.34639204,-71.06821487,Appleton Street & Tremont Street,298,nearest_address
4288,22JH216,Paul Pl,42-48 Paul Pl,IS,1060214400000,2210740194,,,GIS,,,,,BWSC,SERVICE_AR=SL; CROSS_STRE=2115; METERED_FL=U; PLACEMENT=MIGRATED,22JH216,,,MU,MUCENT,2000,,,,1,,1177632000000,blundonr,1224460800000,{0098E931-B7C3-5DDF-80BB-31A6D4F2BDFE},-71.067883765999966,42.346812032000059,42-48 (STREET_FEA 3249),STREET_FEA 3249,77,derived_50_100_ft,boston-sam,341664,42-48 Paul Pl,Paul Pl,42.34660496,-71.06782319,Herald Street & Paul Place,183,nearest_address
4333,21JH250,Washington St,1222-1226 Washington St,IS,,2110740064,,,MANUAL,,,,,BWSC,SERVICE_AR=SL; CROSS_STRE=3286; METERED_FL=U; PLACEMENT=MIGRATED,21JH250,,,KE,KEK81-A,1994,,,,1,,1177632000000,mulline,1224720000000,{93E974AB-3A56-574E-98DA-FE680B9FA3B3},-71.067044249999981,42.342687230000081,1230-1264 (STREET_FEA 4400),STREET_FEA 4400,89,derived_50_100_ft,boston-sam,171072,1222-1226 Washington St,Washington St,42.34275487,-71.06672531,Perry Street & Washington Street,51,nearest_address
4401,21JH126,Aguadilla St,3 Aguadilla St,IS,,2110740111,,,MANUAL,,,,,BWSC,SERVICE_AR=SL; CROSS_STRE=4217; METERED_FL=U; PLACEMENT=MIGRATED,21JH126,,,KE,KEK81-A,1994,,,,1,,1177632000000,blundonr,1255478400000,{0CC7CB61-7BA2-58D1-93C6-2A18CD0B3172},-71.074165947999973,42.341892466000047,5 (STREET_FEA 145),STREET_FEA 145,37,derived_0_50_ft,boston-sam,350969,3 Aguadilla St,Aguadilla St,42.34195630,-71.07427219,Aguadilla Street & West Brookline Street,212,nearest_address
4404,21JH138,W Canton St,168 W Canton St,IS,,2110740031,,,MANUAL,,,,,BWSC,SERVICE_AR=SL; CROSS_STRE=2904; METERED_FL=U; PLACEMENT=MIGRATED,21JH138,,,MU,MUCENT,1992,,,,1,,1177632000000,blundonr,1255478400000,{E95E6A61-29C8-54C2-8833-E9074D8FC3BC},-71.075670033999984,42.343406329000061,168 (STREET_FEA 74),STREET_FEA 74,35,derived_0_50_ft,boston-sam,25592,168 W Canton St,W Canton St,42.34333867,-71.07576060,Montgomery Street & West Canton Street,102,nearest_address
4407,21JH260,Harrison Ave,530 Harrison Ave,IS,,2110740332,,,MANUAL,,,,,BWSC,SERVICE_AR=SL; CROSS_STRE=3806; METERED_FL=U; PLACEMENT=mulline,21JH260,,,MU,MUCENT,1979,,,,1,,1238716800000,blundonr,1249430400000,{818F43D0-9673-5AED-95B4-95491F42CDB8},-71.067047410999976,42.341482522000035,540 OPP (STREET_FEA 2032),STREET_FEA 2032,101,derived_100_150_ft,boston-sam,437831,530 Harrison Ave,Harrison Ave,42.34148526,-71.06667233,Harrison Avenue & Savoy Street,99,nearest_address
4439,20KH126,Albany Street,Near Albany Street & Plympton Street,IS,1066003200000,2011740139,,,GPS,,,,,PRIV,SERVICE_AR=SL; CROSS_STRE=3339; METERED_FL=U; PLACEMENT=MIGRATED,20KH126,,,MH,MH929,2002,,,,1,,1177632000000,blundonr,1244419200000,{4563A47F-E055-5FB7-86C0-A03C1CA84196},-71.065813800999933,42.337155533000043,540 REAR (STREET_FEA 160),STREET_FEA 160,351,intersection_preferred_150_plus_ft,boston-sam,439440,520 Albany St,Albany St,42.33790186,-71.06664184,Albany Street & Plympton Street,475,nearest_intersection
4451,20JH222,E Canton St,79 E Canton St,IS,,2010740016,,,MANUAL,,,,,BWSC,SERVICE_AR=SL; CROSS_STRE=251; METERED_FL=U; PLACEMENT=MIGRATED,20JH222,,,KE,KEK81-A,1994,,,,1,,1177632000000,chalmersh,1225152000000,{EC5A858A-A882-55D4-98DB-3D61CE1A61EF},-71.069672461999971,42.338195599000073,79 (STREET_FEA 5),STREET_FEA 5,44,derived_0_50_ft,boston-sam,25549,79 E Canton St,E Canton St,42.33807867,-71.06972059,East Canton Street & Jeffrey Street,141,nearest_address
4464,21IH180,Claremont Park,33 Claremont Park,IS,,2109740102,,,GIS,,,,,BWSC,SERVICE_AR=SL; CROSS_STRE=1006; METERED_FL=U; PLACEMENT=MIGRATED,21IH180,,,KE,KEK81-A,1995,,,,1,,1177632000000,blundonr,1255478400000,{4BCB647C-CAAD-5F6E-B17D-B2F5F392DCFE},-71.081718222999939,42.342539125000030,33 (STREET_FEA 1005),STREET_FEA 1005,28,derived_0_50_ft,boston-sam,33076,33 Claremont Park,Claremont Park,42.34258867,-71.08164060,Claremont Park & Claremont Street,41,nearest_address
4465,21JH208,Washington St,1361-1375 Washington St,IS,959817600000,2110740139,,,MANUAL,,,,,BWSC,SERVICE_AR=SL; CROSS_STRE=4253; METERED_FL=U; PLACEMENT=MIGRATED,21JH208,,,MU,MUCENT,2000,,,,1,,1177632000000,chings,1456099200000,{663F81D3-594D-546A-927C-D4C352695F68},-71.069276073999958,42.341357508000044,1336 (STREET_FEA 4400),STREET_FEA 4400,121,derived_100_150_ft,boston-sam,144181,1361-1375 Washington St,Washington St,42.34158193,-71.06960815,Union Park Street & Washington Street,96,nearest_address
4501,22JH19,Columbus Ave,406 Columbus Ave,IS,,2210740340,,,MANUAL,,,,,BWSC,SERVICE_AR=SL; CROSS_STRE=74; METERED_FL=U; PLACEMENT=MIGRATED,22JH19,,,MU,MUCENT,1993,,,,1,,1177632000000,palaciolv,1224806400000,{F15F2463-AAE8-54A1-832B-74F666FE6207},-71.076652617999969,42.344563149000066,404 (STREET_FEA 1077),STREET_FEA 1077,35,derived_0_50_ft,boston-sam,163608,406 Columbus Ave,Columbus Ave,42.34447612,-71.07659966,Appleton Street & West Canton Street,95,nearest_address
4590,22JH144,Warren Ave,7 Warren Ave,IS,,2210740273,,,MANUAL,,,,,BWSC,SERVICE_AR=SL; CROSS_STRE=4379; METERED_FL=U; PLACEMENT=MIGRATED,22JH144,,,DA,ADB-84-B,1990,,,,1,,1177632000000,palaciolv,1224720000000,{40E719AD-1370-51D2-A80B-AAB3B872368D},-71.070160606999934,42.345622790000050,30 OPP (STREET_FEA 511),STREET_FEA 511,141,derived_100_150_ft,boston-sam,143049,7 Warren Ave,Warren Ave,42.34560567,-71.07068459,Berkeley Street & Warren Avenue,61,nearest_address
4595,21JH226,Washington St,1293-1317 Washington St,IS,,2110740104,,,MANUAL,,,,,BWSC,SERVICE_AR=SL; CROSS_STRE=4367; METERED_FL=U; PLACEMENT=MIGRATED,21JH226,,,MU,MUCENT,1999,,,,1,,1177632000000,chings,1456099200000,{BA04100A-0205-59E5-9C7A-C4091364F0EE},-71.068310466999947,42.341995203000067,1293-1317 (STREET_FEA 4400),STREET_FEA 4400,126,derived_100_150_ft,boston-sam,144017,1293-1317 Washington St,Washington St,42.34231967,-71.06815259,Rollins Street & Washington Street,42,nearest_address
4606,21JH46,Rutland Sq,22 Rutland Sq,IS,,2110740131,,,MANUAL,,,,,BWSC,SERVICE_AR=SL; CROSS_STRE=200; METERED_FL=U; PLACEMENT=MIGRATED,21JH46,,,US,USSEN,1980,,,,1,,1177632000000,blundonr,1255478400000,{925FF965-01A6-594C-8AE8-3FA5B59000D7},-71.078077443999973,42.341579159000048,20 (STREET_FEA 3728),STREET_FEA 3728,36,derived_0_50_ft,boston-sam,120057,22 Rutland Sq,Rutland Sq,42.34153867,-71.07820060,Rutland Square & Rutland Street,316,nearest_address
4613,20JH164,E Concord St,30-34 E Concord St,IS,,2010740084,,,MANUAL,,,,,BWSC,SERVICE_AR=SL; CROSS_STRE=6066; METERED_FL=U; PLACEMENT=MIGRATED,20JH164,,,WA,WAWB67P,1989,,,,1,,1177632000000,chalmersh,1225152000000,{73EFCEFC-D59C-54FC-9B51-47B79B2F589F},-71.074066022999943,42.337260510000078,34 (STREET_FEA 7),STREET_FEA 7,51,derived_50_100_ft,boston-sam,352914,30-34 E Concord St,E Concord St,42.33739772,-71.07403483,East Concord Street & Father Francis J. Gilday Street,43,nearest_address
4632,21KH8,Albany St,471-473 Albany St,IS,,2111740208,,,GIS,,,,,BWSC,SERVICE_AR=SL; CROSS_STRE=4253; METERED_FL=U; PLACEMENT=MIGRATED,21KH8,,,KE,KEK81-A,1995,,,,1,,1177632000000,blundonr,1255478400000,{D8D7C8C1-FEC1-50C7-ADC6-AEC9934DD5CF},-71.064913520999937,42.339730258000031,469 (STREET_FEA 160),STREET_FEA 160,24,derived_0_50_ft,boston-sam,1541,471-473 Albany St,Albany St,42.33974867,-71.06500059,Albany Street & Union Park Street,52,nearest_address
4737,21JH216,Union Park,43 Union Park,IS,,2110740039,,,MANUAL,,,,,BWSC,SERVICE_AR=SL; CROSS_STRE=4217; METERED_FL=U; PLACEMENT=MIGRATED,21JH216,,,SM,SMH205,1976,,,,1,,1177632000000,chalmersh,1225238400000,{B062A27C-984E-5EFE-B83D-BB1230E9518F},-71.071733307999978,42.343275650000066,41 (STREET_FEA 4249),STREET_FEA 4249,42,derived_0_50_ft,boston-sam,139186,43 Union Park,Union Park,42.34338867,-71.07170059,Tremont Street & Union Park,198,nearest_address
4738,22JH142,Berkeley Street,Near Berkeley Street & Warren Avenue,IS,126230400000,2210740284,,,MANUAL,,,,,BWSC,SERVICE_AR=SH; CROSS_STRE=4217; METERED_FL=U; PLACEMENT=MIGRATED,22JH142,,,SM,SMH205,1974,,,,1,,1177632000000,chalmersh,1250208000000,{0B224D9E-F962-5007-B4E3-9F0128146E16},-71.070021032999989,42.345417476000080,STREET_FEA 511,STREET_FEA 511,191,intersection_preferred_150_plus_ft,boston-sam,143049,7 Warren Ave,Warren Ave,42.34560567,-71.07068459,Berkeley Street & Warren Avenue,60,nearest_intersection
4789,21JH178,Tremont St,598 Tremont St,IS,252460800000,2110740054,,,MANUAL,,,,,BWSC,SERVICE_AR=SL; CROSS_STRE=4265; METERED_FL=U; PLACEMENT=MIGRATED,21JH178,,,US,USH205,1978,,,,1,,1177632000000,Blundonr,1273795200000,{8796DF15-F1B0-58A7-9505-44EDD8166BE5},-71.073353400999963,42.342918705000045,598 (STREET_FEA 4217),STREET_FEA 4217,42,derived_0_50_ft,boston-sam,137742,598 Tremont St,Tremont St,42.34283867,-71.07324059,Tremont Street & Upton Street,111,nearest_address
4793,20JH237,Harrison Ave,731 Harrison Ave,IS,966988800000,2010740359,,,GIS,,,,,BWSC,SERVICE_AR=SL; CROSS_STRE=21; METERED_FL=U; PLACEMENT=MIGRATED,20JH237,,,MU,MUCENT,2000,,,,1,,1177632000000,blundonr,1268611200000,{93EDD3CF-D114-5566-BF64-BF8EEA6E3878},-71.071944970999937,42.338062143000059,STREET_FEA 194,STREET_FEA 194,62,derived_50_100_ft,boston-sam,70025,731 Harrison Ave,Harrison Ave,42.33804267,-71.07171559,East Newton Street & Father Francis J. Gilday Street,194,nearest_address
4797,22JH146,Berkeley St,41 Berkeley St,IS,,2210740239,,,GIS,,,,,BWSC,SERVICE_AR=SL; CROSS_STRE=269; METERED_FL=U; PLACEMENT=MIGRATED,22JH146,,,KE,KEK11,1974,,,,1,,1177632000000,blundonr,1255478400000,{33900431-06E8-584F-91E0-07433EE097E5},-71.070397051999976,42.346091872000045,47-43 (STREET_FEA 511),STREET_FEA 511,53,derived_50_100_ft,boston-sam,341084,41 Berkeley St,Berkeley St,42.34608502,-71.07019940,Appleton Street & Berkeley Street,83,nearest_address
4800,21KH20,Albany Street,Near Albany Street & Thayer Street,IS,,2111740119,,,GIS,,,,,BWSC,SERVICE_AR=SL; CROSS_STRE=5021; METERED_FL=U; PLACEMENT=MIGRATED,21KH20,,,KE,KEK81-A,2003,,,,1,,1177632000000,blundonr,1255478400000,{679E8A6F-640D-56D8-953B-5E1ED262117D},-71.063178076999975,42.341847903000030,STREET_FEA 160,STREET_FEA 160,171,intersection_preferred_150_plus_ft,boston-sam,161412,365 Albany St,Albany St,42.34231494,-71.06309466,Albany Street & Thayer Street,61,nearest_intersection
4857,21JH70,W Newton St,142 W Newton St,IS,,2110740097,,,GIS,,,,,BWSC,SERVICE_AR=SL; CROSS_STRE=3416; METERED_FL=U; PLACEMENT=MIGRATED,21JH70,,,KE,KEK81-A,1995,,,,1,,1177632000000,louisjamey,1461024000000,{892B8E0F-BC6A-503D-B695-791AFB1BD452},-71.077503902999979,42.342203946000041,142 (STREET_FEA 5793),STREET_FEA 5793,35,derived_0_50_ft,boston-sam,102408,142 W Newton St,W Newton St,42.34213867,-71.07760060,Tremont Street & West Newton Street,406,nearest_address
4900,20JH238,Cumston St,2-14 Cumston St,IS,965088000000,2010740360,,,MANUAL,,,,,BWSC,SERVICE_AR=SL; CROSS_STRE=76; METERED_FL=U; PLACEMENT=MIGRATED,20JH238,,,MU,MUCENT,1999,,,,1,,1177632000000,chalmersh,1225238400000,{7A89615D-25C7-5A2D-BBDF-C3C95FD4B0B6},-71.075438222999935,42.338467715000036,14 (STREET_FEA 1215),STREET_FEA 1215,75,derived_50_100_ft,boston-sam,347462,2-14 Cumston St,Cumston St,42.33855793,-71.07518877,Cumston Street & West Concord Street,40,nearest_address
4931,21JH106,Pembroke St,141 Pembroke St,IS,599616000000,2110740034,,,GIS,,,,,BWSC,SERVICE_AR=SL; CROSS_STRE=4379; METERED_FL=U; PLACEMENT=MIGRATED,21JH106,,,US,USSEN,1980,,,,1,,1177632000000,blundonr,1255478400000,{558460CB-F907-55C6-94A4-4028E6F92281},-71.077384320999954,42.343366472000071,141 (STREET_FEA 3273),STREET_FEA 3273,39,derived_0_50_ft,boston-sam,109074,141 Pembroke St,Pembroke St,42.34340867,-71.07725060,Columbus Square & Pembroke Street,47,nearest_address
5028,20JH212,Harrison Ave,731 Harrison Ave,IS,63072000000,2010740036,,,MANUAL,,,,,BWSC,SERVICE_AR=SL; CROSS_STRE=21; METERED_FL=U; PLACEMENT=MIGRATED,20JH212,,,WA,WAWB67P,1980,,,,1,,1177632000000,chalmersh,1225152000000,{BD8137A7-443C-5AA5-A2F9-7280D75C066C},-71.071524136999983,42.337956343000030,731 (STREET_FEA 2032),STREET_FEA 2032,60,derived_50_100_ft,boston-sam,70025,731 Harrison Ave,Harrison Ave,42.33804267,-71.07171559,East Brookline Street & Harrison Avenue,202,nearest_address
5075,21JH263,Washington St,1361-1375 Washington St,IS,959817600000,2110740335,,,MANUAL,,,,,BWSC,SERVICE_AR=SL; CROSS_STRE=4400; METERED_FL=U; PLACEMENT=BlundoNR,21JH263,,,MU,MUCENT,2000,,,,1,,1327449600000,chings,1456099200000,{7AE3CAEB-579A-5A46-8B67-EE15E6300108},-71.069750452999983,42.341515823000066,26 (STREET_FEA 4253),STREET_FEA 4253,45,derived_0_50_ft,boston-sam,144181,1361-1375 Washington St,Washington St,42.34158193,-71.06960815,Union Park Street & Washington Street,74,nearest_address
5085,21KH52,Washington St,1134-1140 Washington St,IS,,2111740012,,,MANUAL,,,,,BWSC,SERVICE_AR=SL; CROSS_STRE=1; METERED_FL=U; PLACEMENT=MIGRATED,21KH52,,,MU,MUCENT,2000,,,,1,,1177632000000,blundonr,1255478400000,{AB340FE0-260B-56DA-A66D-BC365F91496C},-71.065937660999964,42.343796406000081,1136 (STREET_FEA 4400),STREET_FEA 4400,26,derived_0_50_ft,boston-sam,143835,1134-1140 Washington St,Washington St,42.34380567,-71.06584359,East Berkeley Street & Washington Street,60,nearest_address
5105,20JH234,Albany St,670 Albany St,IS,704419200000,2010740356,,,MANUAL,,,,,PRIV,SERVICE_AR=SH; CROSS_STRE=21; METERED_FL=U; PLACEMENT=MIGRATED,20JH234,,,MU,MUCENT,2004,,,,1,,1177632000000,mulline,1256601600000,{5C4DF712-B1FB-5A39-A45F-554FCF83E7A5},-71.069928779999941,42.334898826000028,710 BACK (STREET_FEA 160),STREET_FEA 160,131,derived_100_150_ft,boston-sam,1565,670 Albany St,Albany St,42.33524567,-71.06980459,Bio Square Drive & East Stoughton Street,48,nearest_address
5113,21JH140,W Brookline St,194 W Brookline St,IS,,2110740048,,,MANUAL,,,,,BWSC,SERVICE_AR=SL; CROSS_STRE=4953; METERED_FL=U; PLACEMENT=MIGRATED,21JH140,,,KE,KEK81-A,1994,,,,1,,1177632000000,chalmersh,1225238400000,{4B7C5ED8-783E-5A63-A0C2-17ADFF2B89EC},-71.076596012999971,42.343183182000075,194 (STREET_FEA 72),STREET_FEA 72,33,derived_0_50_ft,boston-sam,22321,194 W Brookline St,W Brookline St,42.34314867,-71.07671060,Warren Avenue & West Brookline Street,189,nearest_address
5145,21KH16,Albany Street,Near Albany Street & Frontage Road Southbound,IS,,2111740149,,,MANUAL,,,,,BWSC,SERVICE_AR=SL; CROSS_STRE=3515; METERED_FL=U; PLACEMENT=MIGRATED,21KH16,,,MU,MUCENT,1992,,,,1,,1177632000000,blundonr,1255478400000,{F34554B6-EF78-5594-B564-421B202DD52B},-71.063666001999934,42.340820393000058,STREET_FEA 160,STREET_FEA 160,204,intersection_preferred_150_plus_ft,boston-sam,172349,30 Randolph St,Randolph St,42.34127325,-71.06411377,Albany Street & Frontage Road Southbound,25,nearest_intersection
5157,21JH255,Columbus Sq,11-12 Columbus Sq,IS,1163030400000,2110740327,,,GIS,,,,,BWSC,SERVICE_AR=SL; CROSS_STRE=1077; METERED_FL=U; PLACEMENT=denapolipd,21JH255,,,MU,MUCENT,2004,,,,1,,1193356800000,blundonr,1224460800000,{3850ACA1-E77C-5A90-AA53-A9F9F0B207E6},-71.078338944999985,42.343213496000033,12-11 (STREET_FEA 1078),STREET_FEA 1078,76,derived_50_100_ft,boston-sam,36082,11-12 Columbus Sq,Columbus Sq,42.34308867,-71.07811060,Columbus Avenue & Columbus Square,50,nearest_address
5167,21JH2,Massachusetts Ave,544 Massachusetts Ave,IS,126230400000,2110740315,,,MANUAL,,,,,BWSC,SERVICE_AR=SL; CROSS_STRE=3868; METERED_FL=U; PLACEMENT=MIGRATED,21JH2,,,KE,KEK81-A,1995,,,,1,,1177632000000,blundonr,1255478400000,{CF79BAC3-DCCF-59C8-ABC8-51C9C35549D7},-71.078885755999977,42.338551921000033,544 (STREET_FEA 2746),STREET_FEA 2746,47,derived_0_50_ft,boston-sam,92362,544 Massachusetts Ave,Massachusetts Ave,42.33860867,-71.07873060,Ward Way & West Springfield Street,153,nearest_address
5195,21JH54,W Newton St,39 W Newton St,IS,567993600000,2110740272,,,MANUAL,,,,,BWSC,SERVICE_AR=SL; CROSS_STRE=4400; METERED_FL=U; PLACEMENT=MIGRATED,21JH54,,,MH,MH929,1988,,,,1,,1177632000000,blundonr,1255478400000,{24B33D42-FB29-5943-8E29-62F14A5BA342},-71.073983969999972,42.339265817000069,39 OPP (STREET_FEA 91),STREET_FEA 91,86,derived_50_100_ft,boston-sam,102605,39 W Newton St,W Newton St,42.33909867,-71.07421060,East Newton Street & Washington Street,173,nearest_address
5273,22JH156,Berkeley St,86 Berkeley St,IS,1123200000000,2210740154,,,GIS,,,,,BWSC,SERVICE_AR=SL; CROSS_STRE=897; METERED_FL=U; PLACEMENT=MIGRATED,22JH156,,,MU,MUCENT,2004,,,,1,,1177632000000,blundonr,1224460800000,{534B3D16-3F2B-5A95-9ADA-01B999D664D1},-71.071029303999978,42.347370972000078,99 (STREET_FEA 511),STREET_FEA 511,94,derived_50_100_ft,boston-sam,15063,86 Berkeley St,Berkeley St,42.34726867,-71.07135059,Berkeley Street & Chandler Street,145,nearest_address
5279,21JH252,Dwight St,4 Dwight St,IS,,2110740009,,,MANUAL,,,,,BWSC,SERVICE_AR=SL; CROSS_STRE=1418; METERED_FL=U; PLACEMENT=MIGRATED,21JH252,,,MU,MUCENT,1975,,,,1,,1177632000000,chalmersh,1225238400000,{0387B524-ED45-5414-BB1A-C5647507C379},-71.067875609999987,42.343824276000078,231 (STREET_FEA 3868),STREET_FEA 3868,17,derived_0_50_ft,boston-sam,50386,4 Dwight St,Dwight St,42.34385867,-71.06792059,Dwight Street & Shawmut Avenue,46,nearest_address
5305,22JH154,Berkeley St,84-84H Berkeley St,IS,1123200000000,2210740159,,,GIS,,,,,BWSC,SERVICE_AR=SH; CROSS_STRE=897; METERED_FL=U; PLACEMENT=MIGRATED,22JH154,,,MU,MUCENT,2005,,,,1,,1177632000000,blundonr,1224460800000,{1AD8B2C3-9A78-5C38-8AEE-974E4DEFEA76},-71.071221370999979,42.347257158000048,84 (STREET_FEA 511),STREET_FEA 511,34,derived_0_50_ft,boston-sam,162052,84-84H Berkeley St,Berkeley St,42.34720614,-71.07132533,Berkeley Street & Chandler Street,123,nearest_address
5308,22KH18,Washington St,1001 Washington St,IS,,2211740101,,,MANUAL,,,,,BWSC,SERVICE_AR=SL; CROSS_STRE=4400; METERED_FL=U; PLACEMENT=MIGRATED,22KH18,,,MH,MH929,1988,,,,1,,1177632000000,mulline,1442966400000,{F3F2D475-1861-5277-9D61-CC8274EDB3D8},-71.064774855999985,42.346617835000075,50 (STREET_FEA 2115),STREET_FEA 2115,142,derived_100_150_ft,boston-sam,460407,1001 Washington St,Washington St,42.34626197,-71.06499186,Herald Street & Washington Street,47,nearest_address
5407,22KH16,Washington Street,Near Washington Street & William E. Mullins Way,IS,,2211740139,,,GIS,,,,,BWSC,SERVICE_AR=SL; CROSS_STRE=4531; METERED_FL=U; PLACEMENT=MIGRATED,22KH16,,,KE,KEK81-A,1995,,,,1,,1177632000000,blundonr,1255478400000,{5EED1CBB-E654-5319-850D-4ACF16BAFBA9},-71.064960296999971,42.345424457000036,STREET_FEA 4400,STREET_FEA 4400,156,intersection_preferred_150_plus_ft,boston-sam,459234,1033 Washington St,Washington St,42.34571677,-71.06538196,Washington Street & William E. Mullins Way,117,nearest_intersection
5538,20JH152,Albany St,700 Albany St,IS,567993600000,2010740197,,,MANUAL,,,,,BWSC,SERVICE_AR=SH; CROSS_STRE=21; METERED_FL=U; PLACEMENT=MIGRATED,20JH152,,,DA,ADB-84-B,1990,,,,1,,1177632000000,chalmersh,1225152000000,{FDBA25C7-AEC3-54A5-B6FF-C1E1C6EF34E4},-71.070602954999970,42.335446431000037,700 (STREET_FEA 160),STREET_FEA 160,107,derived_100_150_ft,boston-sam,1566,700 Albany St,Albany St,42.33548867,-71.07021059,Albany Street & East Stoughton Street,48,nearest_address
5564,21JH102,Pembroke St,91 Pembroke St,IS,,2110740098,,,MANUAL,,,,,BWSC,SERVICE_AR=SL; CROSS_STRE=508; METERED_FL=U; PLACEMENT=MIGRATED,21JH102,,,US,USSEN,1981,,,,1,,1177632000000,blundonr,1255478400000,{7372621C-0E01-550D-A1E5-FE136D0B7FFE},-71.076384918999963,42.342191118000073,93 (STREET_FEA 3273),STREET_FEA 3273,35,derived_0_50_ft,boston-sam,109091,91 Pembroke St,Pembroke St,42.34221867,-71.07626060,Aguadilla Street & Pembroke Street,225,nearest_address
5621,21JH176,W Dedham St,1-7 W Dedham St,IS,1379376000000,2110740155,,,MANUAL,,,,,BWSC,SERVICE_AR=SL; CROSS_STRE=4400; METERED_FL=U; PLACEMENT=MIGRATED,21JH176,,,KE,KEK81-A,2011,,,,1,,1177632000000,hoffmanr,1455148800000,{C9C08381-5296-599B-B4B1-E65C62E397E2},-71.071078599999964,42.341079432000072,11-15 OPP (STREET_FEA 3270),STREET_FEA 3270,112,derived_100_150_ft,boston-sam,171534,1-7 W Dedham St,W Dedham St,42.34121158,-71.07145536,Pelham Street & Pelham Terrace,87,nearest_address
5623,21JH261,Columbus Ave,430 Columbus Ave,IS,,2110740333,,,MANUAL,,,,,BWSC,SERVICE_AR=SL; CROSS_STRE=626; METERED_FL=U; PLACEMENT=MIGRATED,21JH261,,,MU,MUCENT,1993,,,,1,,1177632000000,louisjamey,1450656000000,{D8CB29A6-0EB2-5338-8E73-8948A15F009E},-71.077415965999933,42.343986692000044,430 (STREET_FEA 1077),STREET_FEA 1077,50,derived_0_50_ft,boston-sam,163612,430 Columbus Ave,Columbus Ave,42.34397945,-71.07723209,Columbus Avenue & Holyoke Street,125,nearest_address
5626,20JH243,Bio Square Drive,Near Bio Square Drive & East Stoughton Street,IS,1066003200000,2010740365,,,GIS,,,,,PRIV,SERVICE_AR=SL; CROSS_STRE=2328; METERED_FL=U; PLACEMENT=MIGRATED,20JH243,,,KE,KEK81-A,1998,,,,1,,1177632000000,blundonr,1244419200000,{746D1645-65BC-5852-ADAD-0986133B5EBA},-71.069547941999986,42.334660406000069,STREET_FEA 2256,STREET_FEA 2256,192,intersection_preferred_150_plus_ft,boston-sam,19119,20 Bradston St,Bradston St,42.33423867,-71.06912059,Bio Square Drive & East Stoughton Street,112,nearest_intersection
5679,22JH18,W Canton St,184 W Canton St,IS,,2210740367,,,MANUAL,,,,,BWSC,SERVICE_AR=SL; CROSS_STRE=4379; METERED_FL=U; PLACEMENT=MIGRATED,22JH18,,,DA,ADB-84-B,1988,,,,1,,1177632000000,palaciolv,1224806400000,{8D24A803-DD7C-5994-A732-FD989BD5AA94},-71.076024001999940,42.344019418000073,184 (STREET_FEA 74),STREET_FEA 74,34,derived_0_50_ft,boston-sam,25601,184 W Canton St,W Canton St,42.34408867,-71.07611060,Warren Avenue & West Canton Street,49,nearest_address
5683,21JH190,Washington St,1395-1405 Washington St,IS,,2110740150,,,MANUAL,,,,,BWSC,SERVICE_AR=SL; CROSS_STRE=4253; METERED_FL=U; PLACEMENT=MIGRATED,21JH190,,,MU,MUCENT,1992,,,,1,,1177632000000,blundonr,1255478400000,{05C34960-02D2-5555-9B8C-7D0BD6B530CF},-71.070275125999956,42.341172298000060,1405 (STREET_FEA 4400),STREET_FEA 4400,37,derived_0_50_ft,boston-sam,447460,1395-1405 Washington St,Washington St,42.34126518,-71.07021907,Monsignor Reynolds Way & Pelham Street,174,nearest_address
5700,21JH1,Haven St,4 Haven St,IS,,2110740281,,,GIS,,,,,BWSC,SERVICE_AR=SL; CROSS_STRE=3729; METERED_FL=U; PLACEMENT=MIGRATED,21JH1,,,MU,MUCENT,1993,,,,1,,1177632000000,blundonr,1255478400000,{1DB0039A-0694-58BB-B611-C46074F7310A},-71.074491935999959,42.339109774000065,4 OPP (STREET_FEA 2073),STREET_FEA 2073,33,derived_0_50_ft,boston-sam,71310,4 Haven St,Haven St,42.33904867,-71.07458059,Cumston Street & Rutland Street,129,nearest_address
5703,20JH192,E Newton St,65 E Newton St,IS,,2010740094,,,MANUAL,,,,,BWSC,SERVICE_AR=SH; CROSS_STRE=2032; METERED_FL=U; PLACEMENT=MIGRATED,20JH192,,,KE,KEK81-A,1994,,,,1,,1177632000000,chalmersh,1225152000000,{ED3ABCD1-AE3B-59DB-82A8-B3D8F152771A},-71.071441032999985,42.337137636000080,74 (STREET_FEA 21),STREET_FEA 21,71,derived_50_100_ft,boston-sam,341869,65 E Newton St,E Newton St,42.33700276,-71.07162996,East Newton Street & Harrison Avenue,194,nearest_address
5721,22JH110,Lawrence St,14 Lawrence St,IS,,2210740216,,,MANUAL,,,,,BWSC,SERVICE_AR=SL; CROSS_STRE=511; METERED_FL=U; PLACEMENT=MIGRATED,22JH110,,,KE,KEK81-A,1995,,,,1,,1177632000000,blundonr,1255478400000,{FB538449-4463-542B-B33E-35DB4FB8D81B},-71.071994051999980,42.346339935000060,13 (STREET_FEA 2479),STREET_FEA 2479,23,derived_0_50_ft,boston-sam,84598,14 Lawrence St,Lawrence St,42.34627867,-71.07202059,Cazenove Street & Chandler Street,148,nearest_address
5729,20JH190,E Newton St,100 E Newton St,IS,,2010740128,,,MANUAL,,,,,BWSC,SERVICE_AR=SH; CROSS_STRE=160; METERED_FL=U; PLACEMENT=MIGRATED,20JH190,,,MU,MUCENT,1986,,,,1,,1177632000000,chalmersh,1225152000000,{AA4D64F5-DC83-5A3F-A0B2-E449129E2034},-71.070578759999933,42.336459713000067,85 OPP (STREET_FEA 21),STREET_FEA 21,108,derived_100_150_ft,boston-sam,155992,100 E Newton St,E Newton St,42.33631774,-71.07022464,Albany Street & East Newton Street,235,nearest_address
5730,22KH782,Albany St,213 Albany St,IS,1251849600000,2211740254,,,MANUAL,,,,,BWSC,SERVICE_AR=SL; CROSS_STRE=2115; METERED_FL=U; PLACEMENT=MIGRATED,22KH782,,,KE,KEK81-A,2003,,,,1,,1177632000000,connorsm,1321228800000,{B24486BB-D62B-5660-8ACC-1CBB339F4771},-71.061109406999947,42.345875089000060,STREET_FEA 158,STREET_FEA 158,99,derived_50_100_ft,boston-sam,437716,213 Albany St,Albany St,42.34586372,-71.06147674,Albany Street & Herald Street,49,nearest_address
5761,21JH238,Tremont St,550 Tremont St,IS,,2110740002,,,MANUAL,,,,,BWSC,SERVICE_AR=SL; CROSS_STRE=4367; METERED_FL=U; PLACEMENT=MIGRATED,21JH238,,,WA,WAWB67P,1980,,,,1,,1177632000000,chalmersh,1225238400000,{C1040ABD-69C3-55B3-B13A-B868E58D405A},-71.071383544999946,42.343912306000050,550 (STREET_FEA 4217),STREET_FEA 4217,32,derived_0_50_ft,boston-sam,137629,550 Tremont St,Tremont St,42.34390367,-71.07126359,Tremont Street & Waltham Street,62,nearest_address
5786,21JH92,W Brookline St,90 W Brookline St,IS,,2110740168,,,MANUAL,,,,,BWSC,SERVICE_AR=SL; CROSS_STRE=3784; METERED_FL=U; PLACEMENT=MIGRATED,21JH92,,,MU,MUCENT,1992,,,,1,,1177632000000,blundonr,1255478400000,{15353C5D-0A73-5F97-AAF0-E5CF09DD40CF},-71.074193966999985,42.340923518000068,90 (STREET_FEA 72),STREET_FEA 72,31,derived_0_50_ft,boston-sam,370355,90 W Brookline St,W Brookline St,42.34085867,-71.07427060,San Juan Street & West Brookline Street,50,nearest_address
5939,21JH232,Shawmut Ave,269-271 Shawmut Ave,IS,,2110740049,,,MANUAL,,,,,BWSC,SERVICE_AR=SL; CROSS_STRE=587; METERED_FL=U; PLACEMENT=MIGRATED,21JH232,,,SM,SMH205,1975,,,,1,,1177632000000,orrda,1458000000000,{8658AD2B-AEB3-53E6-8E4B-92E60478DC98},-71.069216198999982,42.343110352000053,271 (STREET_FEA 2007),STREET_FEA 2007,32,derived_0_50_ft,boston-sam,126096,269-271 Shawmut Ave,Shawmut Ave,42.34319867,-71.06923059,Hanson Street & Shawmut Avenue,48,nearest_address
6045,21KH26,Albany St,274 Albany St,IS,865555200000,2111740037,,,MANUAL,,,,,BWSC,SERVICE_AR=SH; CROSS_STRE=1; METERED_FL=U; PLACEMENT=MIGRATED,21KH26,,,KE,KEK81-A,1994,,,,1,,1177632000000,blundonr,1255478400000,{457864A6-87C8-5A2F-81CA-D681D831A4C5},-71.062519200999986,42.343157040000051,275 (STREET_FEA 160),STREET_FEA 160,117,derived_100_150_ft,boston-sam,354160,274 Albany St,Albany St,42.34327557,-71.06211527,Albany Street & East Berkeley Street,51,nearest_address
6070,22KH770,Washington St,1000-1020 Washington St,IS,707356800000,2211740130,,,MANUAL,,,,,BWSC,SERVICE_AR=SL; CROSS_STRE=4400; METERED_FL=U; PLACEMENT=MIGRATED,22KH770,,,MU,MUCENT,1989,,,,1,,1177632000000,hoffmanr,1457913600000,{153685E9-FFFE-50BB-A6EE-EC9D824C49D4},-71.064262294999935,42.345678324000062,STREET_FEA 4531,STREET_FEA 4531,81,derived_50_100_ft,boston-sam,155672,1000-1020 Washington St,Washington St,42.34586590,-71.06442676,Washington Street & William E. Mullins Way,173,nearest_address
6268,22JH224,Herald St,120 Herald St,IS,,2210740365,,,MANUAL,,,,,BWSC,SERVICE_AR=SL; CROSS_STRE=3868; METERED_FL=U; PLACEMENT=MIGRATED,22JH224,,,MU,MUCENT,1991,,,,1,,1177632000000,mulline,1442966400000,{37C235CC-ED5C-57D3-86E8-4758656C2F76},-71.066795351999986,42.347053076000066,120 (STREET_FEA 2115),STREET_FEA 2115,70,derived_50_100_ft,boston-sam,72954,120 Herald St,Herald St,42.34688567,-71.06692359,Herald Street & Shawmut Avenue,255,nearest_address
6278,20JH144,Worcester St,17 Worcester St,IS,,2010740039,,,GIS,,,,,BWSC,SERVICE_AR=SL; CROSS_STRE=1283; METERED_FL=U; PLACEMENT=MIGRATED,20JH144,,,MU,MUCENT,1991,,,,1,,1177632000000,blundonr,1255478400000,{7DEDF4C2-7210-5F1D-9B49-739984B38AE7},-71.076171983999984,42.337966250000079,17 (STREET_FEA 4636),STREET_FEA 4636,44,derived_0_50_ft,boston-sam,152404,17 Worcester St,Worcester St,42.33802867,-71.07603060,Deacon Street & Worcester Street,48,nearest_address
6327,21IH178,Claremont Park,15 Claremont Park,IS,,2109740130,,,MANUAL,,,,,BWSC,SERVICE_AR=SL; CROSS_STRE=1077; METERED_FL=U; PLACEMENT=MIGRATED,21IH178,,,MU,MUCENT,1988,,,,1,,1177632000000,chalmersh,1225238400000,{0FB751D1-4DA4-5CFB-B621-9BFC983FE069},-71.081200160999970,42.342186438000056,15 (STREET_FEA 1005),STREET_FEA 1005,46,derived_0_50_ft,boston-sam,33031,15 Claremont Park,Claremont Park,42.34228867,-71.08110060,Claremont Park & Claremont Street,226,nearest_address
6415,20JH165,E Concord St,57 E Concord St,IS,,2010740118,,,MANUAL,,,,,BWSC,SERVICE_AR=SL; CROSS_STRE=2032; METERED_FL=U; PLACEMENT=MIGRATED,20JH165,,,WA,WAWB67P,1988,,,,1,,1177632000000,chalmersh,1225152000000,{80455944-08ED-5B8E-882E-BCF79A2D9B39},-71.073291373999950,42.336617133000061,57 OPP (STREET_FEA 7),STREET_FEA 7,76,derived_50_100_ft,boston-sam,41839,57 E Concord St,E Concord St,42.33651867,-71.07354059,East Concord Street & Harrison Avenue,52,nearest_address
6460,22JH36,Appleton St,151 Appleton St,IS,,2210740313,,,MANUAL,,,,,BWSC,SERVICE_AR=SL; CROSS_STRE=74; METERED_FL=U; PLACEMENT=MIGRATED,22JH36,,,MH,MH129,1980,,,,1,,1177632000000,palaciolv,1224720000000,{BCD4A1A4-E0D1-5D58-B58E-6670A72C5B66},-71.075639631999934,42.344976940000038,150 (STREET_FEA 269),STREET_FEA 269,23,derived_0_50_ft,boston-sam,3947,151 Appleton St,Appleton St,42.34503867,-71.07562060,Columbus Avenue & Yarmouth Street,156,nearest_address
6484,22JH114,Cazenove St,17 Cazenove St,IS,,2210740150,,,GIS,,,,,BWSC,SERVICE_AR=SL; CROSS_STRE=897; METERED_FL=U; PLACEMENT=MIGRATED,22JH114,,,SM,SMH205,1974,,,,1,,1177632000000,blundonr,1255478400000,{6CBE87A8-471B-5A3B-BC48-2212872AF81F},-71.072815229999946,42.347309392000057,17 (STREET_FEA 849),STREET_FEA 849,39,derived_0_50_ft,boston-sam,26643,17 Cazenove St,Cazenove St,42.34722867,-71.07291059,Clarendon Street & Columbus Avenue,196,nearest_address
6497,22JH74,Clarendon St,29 Clarendon St,IS,,2210740309,,,GIS,,,,,BWSC,SERVICE_AR=SL; CROSS_STRE=4379; METERED_FL=U; PLACEMENT=MIGRATED,22JH74,,,KE,KEK81-A,1982,,,,1,,1177632000000,blundonr,1255478400000,{C276567A-7328-5FF3-95E7-0F32D6312F10},-71.072362166999937,42.345033739000030,29 (STREET_FEA 1009),STREET_FEA 1009,27,derived_0_50_ft,boston-sam,163453,29 Clarendon St,Clarendon St,42.34509690,-71.07230639,Clarendon Street & Warren Avenue,56,nearest_address
6607,20JH82,Washington St,1750-1752 Washington St 1,IS,,2010740134,,,MANUAL,,,,,BWSC,SERVICE_AR=SL; CROSS_STRE=4400; METERED_FL=U; PLACEMENT=MIGRATED,20JH82,,,MU,MUCENT,1991,,,,1,,1177632000000,chalmersh,1225152000000,{9DBFB5AC-5A5A-5BB7-B335-28E99165AD3A},-71.076651131999938,42.336384865000070,644 (STREET_FEA 2746),STREET_FEA 2746,31,derived_0_50_ft,boston-sam,144435,1750-1752 Washington St 1,Washington St,42.33643832,-71.07656061,Massachusetts Avenue & Washington Street,92,nearest_address
6627,20JH245,Bio Square Drive,Near Bio Square Drive & East Newton Street,IS,,2010740367,,,GIS,,,,,PRIV,SERVICE_AR=SL; CROSS_STRE=2328; METERED_FL=U; PLACEMENT=MIGRATED,20JH245,,,KE,KEK81-A,1997,,,,1,,1177632000000,blundonr,1244419200000,{C1A35D86-8907-5E01-B994-BF5BBD90FE7D},-71.068584947999966,42.335138749000066,STREET_FEA 2256,STREET_FEA 2256,267,intersection_preferred_150_plus_ft,boston-sam,445207,120 E Newton St,E Newton St,42.33551917,-71.06943482,Bio Square Drive & East Newton Street,117,nearest_intersection
6642,22KH38,Harrison Ave,335-347 Harrison Ave,IS,,2211740155,,,GIS,,,,,BWSC,SERVICE_AR=SH; CROSS_STRE=4531; METERED_FL=U; PLACEMENT=MIGRATED,22KH38,,,MH,MH929,1983,,,,1,,1177632000000,blundonr,1255478400000,{0A624C00-1378-5E04-9B14-065748BE3536},-71.063849148999964,42.345089933000054,345 (STREET_FEA 2032),STREET_FEA 2032,95,derived_50_100_ft,boston-sam,355636,335-347 Harrison Ave,Harrison Ave,42.34504244,-71.06419799,Harrison Avenue & William E. Mullins Way,144,nearest_address
6703,21KH2,Wareham St,84-88 Wareham St,IS,,2111740242,,,GIS,,,,,BWSC,SERVICE_AR=SL; CROSS_STRE=4376; METERED_FL=U; PLACEMENT=MIGRATED,21KH2,,,MU,MUCENT,2003,,,,1,,1177632000000,blundonr,1271808000000,{C2B2C105-4ED0-5EEE-8E4A-D6E593F42FD6},-71.066441431999976,42.338639316000069,505 (STREET_FEA 160),STREET_FEA 160,131,derived_100_150_ft,boston-sam,352033,84-88 Wareham St,Wareham St,42.33893635,-71.06671553,Albany Street & Wareham Street,57,nearest_address
6717,21JH186,Malden St,50 Malden St,IS,,2110740218,,,MANUAL,,,,,BWSC,SERVICE_AR=SL; CROSS_STRE=2032; METERED_FL=U; PLACEMENT=MIGRATED,21JH186,,,KE,KEK81-A,1994,,,,1,,1177632000000,mulline,1445212800000,{090E5C4B-507E-5816-8C80-2048B4CBDAC5},-71.068231712999989,42.340115482000044,STREET_FEA 2658,STREET_FEA 2658,48,derived_0_50_ft,boston-sam,419532,50 Malden St,Malden St,42.34011826,-71.06805367,Malden Street & Wareham Street,58,nearest_address
6761,21JH144,E Dedham St,83-93 E Dedham St,IS,1378166400000,2110740299,,,AS BUILT,,,,,BWSC,SERVICE_AR=SL; CROSS_STRE=251; METERED_FL=U; PLACEMENT=MIGRATED,21JH144,,,KE,KEK81-A,2012,,,,1,,1177632000000,chalmersh,1425859200000,{C0346A30-9612-5E7F-9126-6BE4D1EFAC9A},-71.069169835999958,42.338794284000073,75 (STREET_FEA 11),STREET_FEA 11,65,derived_50_100_ft,boston-sam,422183,83-93 E Dedham St,E Dedham St,42.33862803,-71.06908380,East Dedham Street & Jeffrey Street,84,nearest_address
6777,21JH154,W Dedham St,50 W Dedham St,IS,,2110740143,,,MANUAL,,,,,BWSC,SERVICE_AR=SL; CROSS_STRE=3868; METERED_FL=U; PLACEMENT=MIGRATED,21JH154,,,DA,ADB-62-B,1980,,,,1,,1177632000000,blundonr,1255478400000,{E5EC758C-E9B8-54EA-86A6-3FC3ADDA8B92},-71.072207857999956,42.341349433000062,13-19 OPP (STREET_FEA 79),STREET_FEA 79,66,derived_50_100_ft,boston-sam,351085,50 W Dedham St,W Dedham St,42.34141594,-71.07243573,Shawmut Avenue & West Dedham Street,46,nearest_address
6812,21JH124,San Juan St,12 San Juan St,IS,,2110740125,,,MANUAL,,,,,BWSC,SERVICE_AR=SL; CROSS_STRE=3062; METERED_FL=U; PLACEMENT=MIGRATED,21JH124,,,DA,ADB-84-B,1975,,,,1,,1177632000000,blundonr,1255478400000,{D3152E7B-594D-55A0-8B7C-4E18EA7A0779},-71.073846777999961,42.341667737000080,12 BACK (STREET_FEA 3784),STREET_FEA 3784,35,derived_0_50_ft,boston-sam,169436,12 San Juan St,San Juan St,42.34157860,-71.07380022,Aguadilla Street & West Brookline Street,244,nearest_address
6835,21JH180,Tremont St,605 Tremont St,IS,,2110740051,,,MANUAL,,,,,BWSC,SERVICE_AR=SL; CROSS_STRE=1266; METERED_FL=U; PLACEMENT=MIGRATED,21JH180,,,SM,SMH205,1976,,,,1,,1177632000000,mulline,1224720000000,{BBA85FD2-FD39-5488-8ADF-608B4E26C677},-71.073528849999946,42.343070226000066,605 (STREET_FEA 4217),STREET_FEA 4217,41,derived_0_50_ft,boston-sam,137766,605 Tremont St,Tremont St,42.34314867,-71.07364059,Dartmouth Street & Tremont Street,110,nearest_address
6840,20JH90,Massachusetts Avenue,Near Massachusetts Avenue & Massachusetts Avenue Connector,IS,,2010740323,,,U,,,,,PRIV,SERVICE_AR=SH; CROSS_STRE=0; METERED_FL=U; PLACEMENT=MIGRATED,20JH90,,,U,U,,,,,1,,1177632000000,blundonr,1282694400000,{F0896D0D-3D5E-598F-BEB3-395389508CDC},-71.071545999999955,42.333528113000057,STREET_FEA 115,STREET_FEA 115,201,intersection_preferred_150_plus_ft,boston-sam,1571,750 Albany St,Albany St,42.33406893,-71.07169286,Massachusetts Avenue & Massachusetts Avenue Connector,332,nearest_intersection
6854,21JH259,Rollins St,3 Rollins St,IS,,2110740331,,,GIS,,,,,PRIV,SERVICE_AR=SL; CROSS_STRE=0; METERED_FL=U; PLACEMENT=palaciolv,21JH259,,,MU,MUCENT,2002,,,,1,,1217548800000,blundonr,1244419200000,{11FC84CF-35B1-52F9-B9EB-D6B9DA9BAD2F},-71.067885447999970,42.341439482000055,1-3 (STREET_FEA 3662),STREET_FEA 3662,27,derived_0_50_ft,boston-sam,353671,3 Rollins St,Rollins St,42.34143796,-71.06798454,Harrison Avenue & Rollins Street,173,nearest_address
6902,21JH136,W Brookline St,160 W Brookline St,IS,,2110740084,,,MANUAL,,,,,BWSC,SERVICE_AR=SL; CROSS_STRE=3416; METERED_FL=U; PLACEMENT=MIGRATED,21JH136,,,MU,MUCENT,1971,,,,1,,1177632000000,blundonr,1255478400000,{C076FEEB-252D-5D98-9131-60CEC4DD5E86},-71.075906212999939,42.342456695000067,160 (STREET_FEA 72),STREET_FEA 72,24,derived_0_50_ft,boston-sam,22272,160 W Brookline St,W Brookline St,42.34239867,-71.07595060,Tremont Street & West Brookline Street,227,nearest_address
6969,22JH8,Holyoke St,5 Holyoke St,IS,,2210740341,,,MANUAL,,,,,BWSC,SERVICE_AR=SL; CROSS_STRE=1077; METERED_FL=U; PLACEMENT=MIGRATED,22JH8,,,MU,MUCENT,1992,,,,1,,1177632000000,palaciolv,1224806400000,{9CDA082F-683A-5D6C-BB91-33A8C082C12A},-71.077355957999941,42.344493748000048,STREET_FEA 2191,STREET_FEA 2191,76,derived_50_100_ft,boston-sam,74945,5 Holyoke St,Holyoke St,42.34468867,-71.07746060,Columbus Avenue & Holyoke Street,88,nearest_address
7019,20JH226,E Dedham St,95-103 E Dedham St,IS,,2010740014,,,AS BUILT,,,,,BWSC,SERVICE_AR=SL; CROSS_STRE=160; METERED_FL=U; PLACEMENT=MIGRATED,20JH226,,,KE,KEK81-A,1994,,,,1,,1177632000000,chalmersh,1425859200000,{AB05F8B7-9865-5917-9831-CC7F6F45E5A0},-71.068432439999981,42.338192493000065,119 (STREET_FEA 11),STREET_FEA 11,60,derived_50_100_ft,boston-sam,422184,95-103 E Dedham St,E Dedham St,42.33804555,-71.06853550,East Dedham Street & Thorn Street,143,nearest_address
7021,20JH220,E Canton St,99 E Canton St,IS,,2010740053,,,MANUAL,,,,,BWSC,SERVICE_AR=SL; CROSS_STRE=251; METERED_FL=U; PLACEMENT=MIGRATED,20JH220,,,MU,MUCENT,1992,,,,1,,1177632000000,chalmersh,1225152000000,{7A7D759B-B93F-511A-97D8-214CD6E48452},-71.069121919999986,42.337741758000050,100 OPP (STREET_FEA 5),STREET_FEA 5,32,derived_0_50_ft,boston-sam,341556,99 E Canton St,E Canton St,42.33767129,-71.06919351,East Canton Street & Thorn Street,146,nearest_address
7041,20JH196,Harrison Ave,761 Harrison Ave,IS,,2010740096,,,MANUAL,,,,,BWSC,SERVICE_AR=SL; CROSS_STRE=7; METERED_FL=U; PLACEMENT=MIGRATED,20JH196,,,KE,KEK81-A,1989,,,,1,,1177632000000,chalmersh,1225152000000,{A0F08624-BA78-53A7-8E63-E67B1750CF58},-71.072635142999957,42.337067198000057,761 (STREET_FEA 2032),STREET_FEA 2032,54,derived_50_100_ft,boston-sam,70055,761 Harrison Ave,Harrison Ave,42.33706736,-71.07283549,East Newton Street & Harrison Avenue,235,nearest_address
7054,22JH30,Warren Ave,149 Warren Ave,IS,,2210740359,,,MANUAL,,,,,BWSC,SERVICE_AR=SL; CROSS_STRE=1266; METERED_FL=U; PLACEMENT=MIGRATED,22JH30,,,WA,WAWB67P,1980,,,,1,,1177632000000,louisjamey,1458864000000,{DA1906CB-6F7B-5460-B1FF-9E52EA73E4F9},-71.075268820999952,42.344189494000034,149 (STREET_FEA 4379),STREET_FEA 4379,35,derived_0_50_ft,boston-sam,142930,149 Warren Ave,Warren Ave,42.34426867,-71.07534060,Warren Avenue & West Canton Street,193,nearest_address
7063,20JH158,Albany St,715 Albany St,IS,,2010740184,,,MANUAL,,,,,BWSC,SERVICE_AR=SL; CROSS_STRE=160; METERED_FL=U; PLACEMENT=MIGRATED,20JH158,,,MU,MUCENT,2004,,,,1,,1177632000000,blundonr,1255478400000,{32809040-F18F-5C1E-B454-1A0CB32B99F6},-71.072016369999972,42.335553084000026,85 (STREET_FEA 7),STREET_FEA 7,123,derived_100_150_ft,boston-sam,161420,715 Albany St,Albany St,42.33559072,-71.07156068,Albany Street & East Concord Street,261,nearest_address
7099,20JH80,Massachusetts Ave,666 Massachusetts Ave,IS,,2010740164,,,GIS,,,,,BWSC,SERVICE_AR=SL; CROSS_STRE=196; METERED_FL=U; PLACEMENT=MIGRATED,20JH80,,,MU,MUCENT,1991,,,,1,,1177632000000,blundonr,1255478400000,{1CD2BFD8-7810-5FC8-B354-252258C5DE49},-71.076105494999979,42.335928524000053,666 (STREET_FEA 2746),STREET_FEA 2746,49,derived_0_50_ft,boston-sam,92545,666 Massachusetts Ave,Massachusetts Ave,42.33601867,-71.07597059,Massachusetts Avenue & Washington Street,312,nearest_address
7193,22JH112,Cazenove St,1 Cazenove St,IS,,2210740187,,,MANUAL,,,,,BWSC,SERVICE_AR=SL; CROSS_STRE=897; METERED_FL=U; PLACEMENT=MIGRATED,22JH112,,,MU,MUCENT,2000,,,,1,,1177632000000,blundonr,1255478400000,{759E71A5-C393-5915-B629-109CE8430715},-71.072582381999950,42.346808874000033,1 (STREET_FEA 849),STREET_FEA 849,37,derived_0_50_ft,boston-sam,26631,1 Cazenove St,Cazenove St,42.34684867,-71.07271059,Cazenove Street & Chandler Street,91,nearest_address
7401,22JH132,Dwight St,32 Dwight St,IS,757382400000,2210740349,,,MANUAL,,,,,BWSC,SERVICE_AR=SL; CROSS_STRE=4114; METERED_FL=U; PLACEMENT=MIGRATED,22JH132,,,KE,KEK81-A,1994,,,,1,,1177632000000,palaciolv,1224806400000,{2B8DF1F3-7CFE-50F4-8A40-2FCBF0240690},-71.068969053999979,42.344315269000049,32 (STREET_FEA 1418),STREET_FEA 1418,26,derived_0_50_ft,boston-sam,50369,32 Dwight St,Dwight St,42.34425867,-71.06903059,Dwight Street & Taylor Street,190,nearest_address
