objectid,facilityid,streetname,address,lifecyclestatus,installdate,legacyid,fireid,firehydid,datasource,plan_1,plan_1_date,plan_2,plan_2_date,owner,comments,id_2017,assoc_valve,type,make,model,year,nozzle_l_size,nozzle_r_size,nozzle_c_size,enabled,created_user,created_date,last_edited_user,last_edited_date,globalid,lon,lat,source_address,source_streetname,address_distance_ft,address_confidence,address_source,address_source_id,nearest_address_label,nearest_address_streetname,nearest_address_lat,nearest_address_lon,nearest_intersection_label,nearest_intersection_distance_ft,address_label_type
26,17IH158,Edgewood St,30 Edgewood St,IS,,1709740150,,,MANUAL,,,,,BWSC,SERVICE_AR=SH; CROSS_STRE=3951; METERED_FL=U; PLACEMENT=MIGRATED,17IH158,,,KE,KEK81-A,2010,,,,1,,1177632000000,pullenn,1273104000000,{AB850D60-E56E-5EB6-B2A8-39267D1A13F2},-71.080464440999947,42.318587353000055,30 (STREET_FEA 1451),STREET_FEA 1451,45,derived_0_50_ft,boston-sam,51229,30 Edgewood St,Edgewood St,42.31869866,-71.08039060,Edgewood Street & Southwood Street,278,nearest_address
55,15IH56,Blue Hill Ave,515 Blue Hill Ave,IS,1115942400000,1509740123,,,MANUAL,,,,,BWSC,SERVICE_AR=SH; CROSS_STRE=3825; METERED_FL=U; PLACEMENT=MIGRATED,15IH56,,,MU,MUCENT,2002,,,,1,,1177632000000,chalmersh,1233532800000,{8B3AF258-F52D-5C17-B051-088B7F4025B9},-71.084106108999947,42.307477306000067,515 (STREET_FEA 568),STREET_FEA 568,51,derived_50_100_ft,boston-sam,16495,515 Blue Hill Ave,Blue Hill Ave,42.30754866,-71.08427060,Blue Hill Avenue & Schuyler Street,73,nearest_address
60,18HH158,Highland St,164 Highland St,IS,,1808740114,,,MANUAL,,,,,BWSC,SERVICE_AR=SH; CROSS_STRE=467; METERED_FL=U; PLACEMENT=MIGRATED,18HH158,,,US,USMET250,1987,,,,1,,1177632000000,palaciolv,1231718400000,{997C5E10-8451-596A-AE7E-F87D450AC7A3},-71.093203117999963,42.324326761000066,165 OPP (STREET_FEA 2143),STREET_FEA 2143,55,derived_50_100_ft,boston-sam,172437,164 Highland St,Highland St,42.32443418,-71.09305959,Beech Glen Street & Highland Street,83,nearest_address
71,17HH148,Washington St,2895-2933 Washington St,IS,,1708740058,,,GIS,,,,,BWSC,SERVICE_AR=SH; CROSS_STRE=1342; METERED_FL=U; PLACEMENT=MIGRATED,17HH148,,,MU,MUCENT,2000,,,,1,,1177632000000,blundonr,1255478400000,{1A71257E-4E5F-50D1-B775-B32B620177A0},-71.094779513999981,42.319450309000047,STREET_FEA 4398,STREET_FEA 4398,72,derived_50_100_ft,boston-sam,353985,2895-2933 Washington St,Washington St,42.31939088,-71.09503424,Dimock Street & Washington Street,268,nearest_address
74,16IH156,Holborn St,25 Holborn St,IS,,1609740064,,,MANUAL,,,,,BWSC,SERVICE_AR=SH; CROSS_STRE=2769; METERED_FL=U; PLACEMENT=MIGRATED,16IH156,,,MU,MUCENT,1991,,,,1,,1177632000000,chalmersh,1240531200000,{4BAFDFBC-79FC-5DC6-B9A9-72E239164FFD},-71.081277474999979,42.314686182000059,25 (STREET_FEA 2174),STREET_FEA 2174,34,derived_0_50_ft,boston-sam,74468,25 Holborn St,Holborn St,42.31460866,-71.08135060,Holborn Park & Holborn Street,35,nearest_address
90,20IH158,Camden St,100 Camden St,IS,,2009740027,,,MANUAL,,,,,BWSC,SERVICE_AR=SL; CROSS_STRE=5763; METERED_FL=U; PLACEMENT=MIGRATED,20IH158,,,DA,ADB-84-B,1990,,,,1,,1177632000000,connorsm,1225152000000,{00E07DBB-90BA-5141-9266-1196EB6A8D8D},-71.081218102999969,42.337807363000024,108 (STREET_FEA 795),STREET_FEA 795,27,derived_0_50_ft,boston-sam,421387,100 Camden St,Camden St,42.33777867,-71.08131060,Camden Street & Minnie B. Clark Way,65,nearest_address
98,20JH46,Harrison Ave,869-871 Harrison Ave,IS,,2010740270,,,GIS,,,,,BWSC,SERVICE_AR=SH; CROSS_STRE=3095; METERED_FL=U; PLACEMENT=MIGRATED,20JH46,,,MU,MUCENT,1991,,,,1,,1177632000000,blundonr,1244505600000,{D460EFDF-6E71-5D78-96D9-2C8A99FBCF1D},-71.075894206999976,42.334252377000041,871 OPP (STREET_FEA 2032),STREET_FEA 2032,86,derived_50_100_ft,boston-sam,70071,869-871 Harrison Ave,Harrison Ave,42.33443867,-71.07609259,Harrison Avenue & Northampton Street,80,nearest_address
102,20IH40,Raynor Cir,11-21 Raynor Cir,IS,,2009740196,,,MANUAL,,,,,BWSC,SERVICE_AR=SL; CROSS_STRE=3751; METERED_FL=U; PLACEMENT=MIGRATED,20IH40,,,KE,KEK81-A,2008,,,,1,,1177632000000,mulline,1231891200000,{3E7EF4F3-A460-50D1-83E1-F69DD8153B7C},-71.086320260999969,42.334217710000075,8 OPP (STREET_FEA 692),STREET_FEA 692,48,derived_0_50_ft,boston-sam,419388,11-21 Raynor Cir,Raynor Cir,42.33425959,-71.08648856,Brook Marshall Road & Raynor Circle,57,nearest_address
131,15IH148,Blue Hill Ave,447-451 Blue Hill Ave,IS,1181606400000,1509740050,,,GIS,,,,,BWSC,SERVICE_AR=SH; CROSS_STRE=1808; METERED_FL=U; PLACEMENT=MIGRATED,15IH148,,,MU,MUCENT,2003,,,,1,,1177632000000,chalmersh,1250812800000,{7C4922EB-83A8-563C-9A16-2E6E0E78E73B},-71.082695514999955,42.309775653000031,648 (STREET_FEA 4385),STREET_FEA 4385,80,derived_50_100_ft,boston-sam,16470,447-451 Blue Hill Ave,Blue Hill Ave,42.30997305,-71.08256683,Blue Hill Avenue & Warren Street,88,nearest_address
165,16HH176,Wardman Rd,7-9 Wardman Rd,IS,865123200000,1608740041,,,MANUAL,,,,,BWSC,SERVICE_AR=SH; CROSS_STRE=4475; METERED_FL=U; PLACEMENT=MIGRATED,16HH176,,,KE,KEK81-A,1997,,,,1,,1177632000000,blundonr,1255478400000,{D4EA80F2-02F2-58DD-A4BE-6D4CA50C4D5A},-71.094772118999970,42.315440939000041,7 (STREET_FEA 4373),STREET_FEA 4373,49,derived_0_50_ft,boston-sam,142734,7-9 Wardman Rd,Wardman Rd,42.31555866,-71.09486060,Wardman Road & Westminster Avenue,130,nearest_address
168,16IH8,Homestead St,124-126 Homestead St,IS,,1609740182,,,GIS,,,,,BWSC,SERVICE_AR=SH; CROSS_STRE=2229; METERED_FL=U; PLACEMENT=MIGRATED,16IH8,,,MU,MUCENT,1993,,,,1,,1177632000000,blundonr,1255478400000,{C10C13FB-CE1D-50F8-8ACC-6481CF16A607},-71.089004257999989,42.311280224000029,124-126 (STREET_FEA 2194),STREET_FEA 2194,59,derived_50_100_ft,boston-sam,75091,124-126 Homestead St,Homestead St,42.31140866,-71.08887060,Homestead Street & Pleasanton Street,419,nearest_address
178,19IH24,Bartlett St,67 Bartlett St,IS,,1909740156,,,MANUAL,,,,,BWSC,SERVICE_AR=SH; CROSS_STRE=557; METERED_FL=U; PLACEMENT=MIGRATED,19IH24,,,KE,KEK81,2011,,,,1,,1177632000000,mulline,1231459200000,{8272EEC7-C9FD-5A3D-B1AB-66B9F11A5938},-71.089714325999978,42.329126549000080,69 (STREET_FEA 422),STREET_FEA 422,26,derived_0_50_ft,boston-sam,8543,67 Bartlett St,Bartlett St,42.32914867,-71.08962060,Bartlett Street & Blanchard Street,17,nearest_address
214,20IH108,Warwick St,23 Warwick St,IS,,2009740111,,,MANUAL,,,,,BWSC,SERVICE_AR=SL; CROSS_STRE=1929; METERED_FL=U; PLACEMENT=MIGRATED,20IH108,,,MU,MUCENT,1992,,,,1,,1177632000000,connorsm,1225152000000,{3B477A55-7CBB-541A-B720-7839F5825DEA},-71.084315361999984,42.336074286000041,41 (STREET_FEA 4388),STREET_FEA 4388,97,derived_50_100_ft,boston-sam,143364,23 Warwick St,Warwick St,42.33632867,-71.08421060,Greenwich Street & Warwick Street,33,nearest_address
236,17JH38,Woodbine St,46 Woodbine St,IS,757382400000,1710740135,,,MANUAL,,,,,BWSC,SERVICE_AR=SH; CROSS_STRE=568; METERED_FL=U; PLACEMENT=MIGRATED,17JH38,,,KE,KEK81-A,1994,,,,1,,1177632000000,orrda,1459296000000,{75040B2B-7722-5DC2-A51E-5CAE241E7633},-71.078707413999950,42.318659205000074,46 (STREET_FEA 4604),STREET_FEA 4604,48,derived_0_50_ft,boston-sam,151411,46 Woodbine St,Woodbine St,42.31876866,-71.07861060,Blue Hill Avenue & Brookford Street,268,nearest_address
257,18JH128,Forest St,53 Forest St,IS,,1810740072,,,MANUAL,,,,,BWSC,SERVICE_AR=SH; CROSS_STRE=4313; METERED_FL=U; PLACEMENT=MIGRATED,18JH128,,,MH,MH929,1988,,,,1,,1177632000000,palaciolv,1231718400000,{0395C575-822F-51E5-9589-6B977431B75B},-71.076885217999973,42.326120175000028,53 (STREET_FEA 1692),STREET_FEA 1692,56,derived_50_100_ft,boston-sam,59306,53 Forest St,Forest St,42.32603867,-71.07706059,Forest Place & Forest Street,120,nearest_address
273,19JH76,Hampden St,63 Hampden St,IS,,1910740089,,,MANUAL,,,,,BWSC,SERVICE_AR=SL; CROSS_STRE=1994; METERED_FL=U; PLACEMENT=MIGRATED,19JH76,,,KE,KEK81-A,2010,,,,1,,1177632000000,pullenn,1273104000000,{97EE3AB8-BC66-554A-A4FC-45CC5C1A3F19},-71.075260257999958,42.331080683000039,STREET_FEA 2805,STREET_FEA 2805,121,derived_100_150_ft,boston-sam,68575,63 Hampden St,Hampden St,42.33080335,-71.07501135,Hampden Street & Melnea Cass Boulevard,117,nearest_address
276,18IH154,Saint James St,5 Saint James St,IS,725846400000,1809740060,,,MANUAL,,,,,BWSC,SERVICE_AR=SH; CROSS_STRE=3756; METERED_FL=U; PLACEMENT=MIGRATED,18IH154,,,MU,MUCENT,1993,,,,1,,1177632000000,blundonr,1255478400000,{05381454-F0EE-5F18-ACEC-ED954D6191CA},-71.083698699999957,42.325824938000039,STREET_FEA 3548,STREET_FEA 3548,112,derived_100_150_ft,boston-sam,169945,5 Saint James St,Saint James St,42.32612835,-71.08376439,Regent Street & Saint James Street,35,nearest_address
306,16JH84,Woodcliff St,31 Woodcliff St,IS,,1610740029,,,MANUAL,,,,,BWSC,SERVICE_AR=SH; CROSS_STRE=4609; METERED_FL=U; PLACEMENT=MIGRATED,16JH84,,,KE,KEK81-A,1988,,,,1,,1177632000000,palaciolv,1231372800000,{12E87086-FDFE-590C-A060-8ADBDF0FE7FA},-71.077077157999952,42.315871009000034,STREET_FEA 1237,STREET_FEA 1237,55,derived_50_100_ft,boston-sam,151470,31 Woodcliff St,Woodcliff St,42.31584766,-71.07687659,Dacia Street & Woodcliff Street,53,nearest_address
313,17IH213,Elmore St,15 Elmore St,IS,,1709740250,,,MANUAL,,,,,BWSC,SERVICE_AR=SH; CROSS_STRE=2382; METERED_FL=U; PLACEMENT=mulline,17IH213,,,MU,MUCENT,2004,,,,1,,1247702400000,blundonr,1249430400000,{C3DC0AD5-A40D-559A-8BEB-D19E1F8FBEF2},-71.091648093999936,42.320626513000036,19 (STREET_FEA 1510),STREET_FEA 1510,44,derived_0_50_ft,boston-sam,420821,15 Elmore St,Elmore St,42.32061979,-71.09181299,Elmore Street & Kensington Street,105,nearest_address
318,20JH86,Massachusetts Ave,621 Massachusetts Ave,IS,,2010740103,,,MANUAL,,,,,BWSC,SERVICE_AR=SL; CROSS_STRE=4400; METERED_FL=U; PLACEMENT=MIGRATED,20JH86,,,MU,MUCENT,1971,,,,1,,1177632000000,blundonr,1255478400000,{0F74A8CD-0CA2-59DE-A525-D3D7ADC4F9A9},-71.077646998999967,42.336864851000030,619 (STREET_FEA 2746),STREET_FEA 2746,37,derived_0_50_ft,boston-sam,92512,621 Massachusetts Ave,Massachusetts Ave,42.33678867,-71.07774060,Massachusetts Avenue & Shawmut Avenue,205,nearest_address
325,16IH182,Warren St,434 Warren St,IS,1181692800000,1609740002,,,MANUAL,,,,,BWSC,SERVICE_AR=SH; CROSS_STRE=3493; METERED_FL=U; PLACEMENT=MIGRATED,16IH182,,,DA,ADB-84-B,2006,,,,1,,1177632000000,pullenn,1259625600000,{200048DA-9E4C-51F8-985E-CD4135B4F81E},-71.082728551999935,42.316456421000055,435 OPP (STREET_FEA 4385),STREET_FEA 4385,108,derived_100_150_ft,boston-sam,143271,434 Warren St,Warren St,42.31616866,-71.08263060,Quincy Street & Warren Street,49,nearest_address
371,20IH134,Shawmut Ave,601-609 Shawmut Ave,IS,63072000000,2009740130,,,MANUAL,,,,,BWSC,SERVICE_AR=SL; CROSS_STRE=2507; METERED_FL=U; PLACEMENT=MIGRATED,20IH134,,,DA,ADB-84-B,1990,,,,1,,1177632000000,blundonr,1244505600000,{BAB6A15A-249D-5FBF-BA10-1C1A056C9CF9},-71.080548659999977,42.335686397000075,609 (STREET_FEA 3868),STREET_FEA 3868,70,derived_50_100_ft,boston-sam,350457,601-609 Shawmut Ave,Shawmut Ave,42.33587505,-71.08049575,Lenox Street & Shawmut Avenue,154,nearest_address
392,17IH38,Townsend St,60 Townsend St,IS,581126400000,1709740149,,,MANUAL,,,,,BWSC,SERVICE_AR=SH; CROSS_STRE=1047; METERED_FL=U; PLACEMENT=MIGRATED,17IH38,,,US,USMET250,1988,,,,1,,1177632000000,chings,1456185600000,{71271F76-DD97-5606-BBD1-96622F89D86E},-71.091756585999974,42.318724852000059,60 OPP (STREET_FEA 4199),STREET_FEA 4199,92,derived_50_100_ft,boston-sam,136484,60 Townsend St,Townsend St,42.31884866,-71.09146060,Townsend Street & Walnut Avenue,262,nearest_address
398,19JH102,East Lenox Street,Near East Lenox Street & Fellows Street,IS,,1910740010,,,MANUAL,,,,,BWSC,SERVICE_AR=SL; CROSS_STRE=18; METERED_FL=U; PLACEMENT=MIGRATED,19JH102,,,MU,MUCENT,1991,,,,1,,1177632000000,connorsm,1225152000000,{8974278B-FC3F-5ABA-9EA8-F7987773CFDA},-71.076279278999948,42.332756512000060,STREET_FEA 1631,STREET_FEA 1631,178,intersection_preferred_150_plus_ft,boston-sam,161423,839R Albany St,Albany St,42.33226833,-71.07625993,East Lenox Street & Fellows Street,48,nearest_intersection
405,20IH184,Ruggles Street,Near Ruggles Street & Tremont Street,IS,,2009740261,,,MANUAL,,,,,BWSC,SERVICE_AR=SL; CROSS_STRE=4216; METERED_FL=U; PLACEMENT=mulline,20IH184,,,KE,KEK81-A,1997,,,,1,,1247616000000,blundonr,1249430400000,{0C53A673-A8A6-592A-8DF0-2F8B6406CC50},-71.089337176999948,42.334263296000074,STREET_FEA 4514,STREET_FEA 4514,156,intersection_preferred_150_plus_ft,boston-sam,173666,1170 Tremont St,Tremont St,42.33441456,-71.08879605,Ruggles Street & Tremont Street,65,nearest_intersection
438,16IH12,Humboldt Ave,233 Humboldt Ave,IS,757382400000,1609740158,,,MANUAL,,,,,BWSC,SERVICE_AR=SH; CROSS_STRE=2194; METERED_FL=U; PLACEMENT=MIGRATED,16IH12,,,KE,KEK81-A,1994,,,,1,,1177632000000,palaciolv,1231372800000,{330567DA-B327-5EF1-827D-370CF8D6A36D},-71.090568769999948,42.312000337000029,225 (STREET_FEA 2229),STREET_FEA 2229,69,derived_50_100_ft,boston-sam,75994,233 Humboldt Ave,Humboldt Ave,42.31191866,-71.09080060,Homestead Street & Humboldt Avenue,38,nearest_address
494,18HH170,Fort Ave,85 Fort Ave,IS,,1808740032,,,MANUAL,,,,,BWSC,SERVICE_AR=SH; CROSS_STRE=2144; METERED_FL=U; PLACEMENT=MIGRATED,18HH170,,,KE,KEK81-A,1995,,,,1,,1177632000000,palaciolv,1231718400000,{4443F9BF-6044-58B0-A58A-37A532E86260},-71.096015131999934,42.326807609000070,81 OPP (STREET_FEA 1702),STREET_FEA 1702,55,derived_50_100_ft,boston-sam,59567,85 Fort Ave,Fort Ave,42.32681451,-71.09580914,Fort Avenue & Highland Park Avenue,75,nearest_address
516,16IH158,Gannett St,8 Gannett St,IS,,1609740074,,,MANUAL,,,,,BWSC,SERVICE_AR=SH; CROSS_STRE=2174; METERED_FL=U; PLACEMENT=MIGRATED,16IH158,,,KE,KEK81-A,1994,,,,1,,1177632000000,chalmersh,1240531200000,{81CF7532-D223-50EA-993A-969B80EFBD80},-71.081645956999978,42.314432788000033,8 (STREET_FEA 1773),STREET_FEA 1773,39,derived_0_50_ft,boston-sam,62436,8 Gannett St,Gannett St,42.31449866,-71.08153060,Holborn Park & Holborn Street,164,nearest_address
555,18JH82,Vine St,39 Vine St,IS,,1810740062,,,MANUAL,,,,,BWSC,SERVICE_AR=SH; CROSS_STRE=1692; METERED_FL=U; PLACEMENT=MIGRATED,18JH82,,,DA,ADB-84-B,1980,,,,1,,1177632000000,palaciolv,1231718400000,{EFA87249-C358-5234-BB78-2465F54B0346},-71.077812123999934,42.326252513000043,46 OPP (STREET_FEA 4314),STREET_FEA 4314,33,derived_0_50_ft,boston-sam,140728,39 Vine St,Vine St,42.32632867,-71.07788060,Vine Avenue & Vine Street,71,nearest_address
567,18JH215,Stafford St,6-10 Stafford St,IS,,1810740249,,,MANUAL,,,,,BWSC,SERVICE_AR=SH; CROSS_STRE=1313; METERED_FL=U; PLACEMENT=MIGRATED,18JH215,,,DA,ADB-84-B,2001,,,,1,,1177632000000,palaciolv,1231718400000,{B195A8BD-A9CD-5A27-A43E-10A826F72D93},-71.076354114999958,42.322068133000073,13 OPP (STREET_FEA 3981),STREET_FEA 3981,45,derived_0_50_ft,boston-sam,130081,6-10 Stafford St,Stafford St,42.32218867,-71.07639059,Dennis Street & Stafford Street,120,nearest_address
571,18JH104,Woodward Ave,34 Woodward Ave,IS,1026259200000,1810740116,,,MANUAL,,,,,BWSC,SERVICE_AR=SL; CROSS_STRE=1804; METERED_FL=U; PLACEMENT=MIGRATED,18JH104,,,MU,MUCENT,2002,,,,1,,1177632000000,mulline,1231372800000,{B358E5E9-6A1C-510C-8F02-AADF0EB4CF19},-71.073475953999946,42.325052250000056,27 OPP (STREET_FEA 4629),STREET_FEA 4629,62,derived_50_100_ft,boston-sam,152023,34 Woodward Ave,Woodward Ave,42.32521867,-71.07343059,Dunmore Street & Magazine Street,183,nearest_address
575,16IH64,Howland St,106 Howland St,IS,,1609740085,,,MANUAL,,,,,BWSC,SERVICE_AR=SH; CROSS_STRE=2229; METERED_FL=U; PLACEMENT=MIGRATED,16IH64,,,KE,KEK81-A,1994,,,,1,,1177632000000,chalmersh,1240531200000,{23DC9509-FAC5-5254-98C0-846D7D80B2CC},-71.089557730999957,42.314282910000031,106 (STREET_FEA 2220),STREET_FEA 2220,31,derived_0_50_ft,boston-sam,75732,106 Howland St,Howland St,42.31421866,-71.08963060,Howland Street & Humboldt Avenue,226,nearest_address
581,16IH92,Humboldt Ave,168 Humboldt Ave,IS,,1609740093,,,MANUAL,,,,,BWSC,SERVICE_AR=SH; CROSS_STRE=2220; METERED_FL=U; PLACEMENT=MIGRATED,16IH92,,,DA,ADB-84-B,1990,,,,1,,1177632000000,chalmersh,1240531200000,{55C32871-2A23-515B-94CB-47C4D0863B9C},-71.088660412999957,42.314071876000071,168 (STREET_FEA 2229),STREET_FEA 2229,65,derived_50_100_ft,boston-sam,75970,168 Humboldt Ave,Humboldt Ave,42.31406866,-71.08842060,Howland Street & Humboldt Avenue,45,nearest_address
583,20IH88,Hammond St,10 Hammond St,IS,,2009740186,,,MANUAL,,,,,BWSC,SERVICE_AR=SL; CROSS_STRE=3868; METERED_FL=U; PLACEMENT=MIGRATED,20IH88,,,US,USSEN,1980,,,,1,,1177632000000,chalmersh,1225152000000,{A6BD8058-AAEE-5326-809A-6B4030219F80},-71.082943106999949,42.334478743000034,STREET_FEA 4571,STREET_FEA 4571,138,derived_100_150_ft,boston-sam,165927,10 Hammond St,Hammond St,42.33437167,-71.08245026,Shawmut Avenue & Windsor Street,234,nearest_address
584,20IH114,Shawmut Ave,617-633 Shawmut Ave,IS,,2009740150,,,MANUAL,,,,,BWSC,SERVICE_AR=SL; CROSS_STRE=2370; METERED_FL=U; PLACEMENT=MIGRATED,20IH114,,,DA,ADB-84-B,1990,,,,1,,1177632000000,connorsm,1225152000000,{B3C19D46-659A-5333-853D-1E2A1D2A6AB4},-71.081118435999940,42.335259558000075,633 (STREET_FEA 3868),STREET_FEA 3868,75,derived_50_100_ft,boston-sam,350488,617-633 Shawmut Ave,Shawmut Ave,42.33546215,-71.08107832,Kendall Street & Trotter Court,145,nearest_address
589,18HH152,Highland St,179-181 Highland St,IS,,1808740141,,,MANUAL,,,,,BWSC,SERVICE_AR=SH; CROSS_STRE=2083; METERED_FL=U; PLACEMENT=MIGRATED,18HH152,,,US,USMET250,1987,,,,1,,1177632000000,palaciolv,1231718400000,{47998E7C-779F-5EBD-95B1-A62D64E6EB2D},-71.093180851999989,42.323689663000039,179-181 OP (STREET_FEA 2143),STREET_FEA 2143,84,derived_50_100_ft,boston-sam,73703,179-181 Highland St,Highland St,42.32375867,-71.09348060,Hawthorne Street & Highland Street,66,nearest_address
597,20IH73,Columbus Ave,835 Columbus Ave,IS,,2009740088,,,MANUAL,,,,,BWSC,SERVICE_AR=SL; CROSS_STRE=3709; METERED_FL=U; PLACEMENT=MIGRATED,20IH73,,,MU,MUCENT,1985,,,,1,,1177632000000,connorsm,1225152000000,{EC882197-7DCA-5749-AC5B-81B3EBF4DA9A},-71.088684067999964,42.336608082000055,STREET_FEA 2806,STREET_FEA 2806,130,derived_100_150_ft,boston-sam,341579,835 Columbus Ave,Columbus Ave,42.33630563,-71.08842413,Columbus Avenue & Melnea Cass Boulevard,265,nearest_address
621,16JH88,Wayland St,100 Wayland St,IS,1086048000000,1610740089,,,GIS,,,,,BWSC,SERVICE_AR=SH; CROSS_STRE=391; METERED_FL=U; PLACEMENT=MIGRATED,16JH88,,,MU,MUCENT,2004,,,,1,,1177632000000,blundonr,1230076800000,{89A8FAC4-729B-5888-87F0-F37B9E0191C6},-71.076341117999959,42.314103727000031,100 (STREET_FEA 4415),STREET_FEA 4415,45,derived_0_50_ft,boston-sam,146627,100 Wayland St,Wayland St,42.31401866,-71.07646059,Balfour Street & Wayland Street,28,nearest_address
637,17IH174,Dale St,47 Dale St,IS,,1709740054,,,MANUAL,,,,,BWSC,SERVICE_AR=SH; CROSS_STRE=2466; METERED_FL=U; PLACEMENT=MIGRATED,17IH174,,,MU,MUCENT,2003,,,,1,,1177632000000,blundonr,1255478400000,{BCF606BC-F6DD-544C-8669-E2BB7E04C0FA},-71.084392941999965,42.320856546000073,48 OPP (STREET_FEA 1241),STREET_FEA 1241,59,derived_50_100_ft,boston-sam,45739,47 Dale St,Dale St,42.32100867,-71.08447060,Dale Street & Rockland Avenue,27,nearest_address
647,19IH182,Williams St,26 Williams St,IS,,1909740024,,,MANUAL,,,,,BWSC,SERVICE_AR=SL; CROSS_STRE=4398; METERED_FL=U; PLACEMENT=MIGRATED,19IH182,,,KE,KEK81-A,1982,,,,1,,1177632000000,blundonr,1255478400000,{357F06A9-685B-5243-B2CF-417A5F9A8D87},-71.082543341999951,42.332414495000080,24 (STREET_FEA 4542),STREET_FEA 4542,45,derived_0_50_ft,boston-sam,150149,26 Williams St,Williams St,42.33239867,-71.08271060,Eustis Street & Washington Street,281,nearest_address
653,18IH220,Dale St,101 Dale St,IS,1154736000000,1809740207,,,MANUAL,,,,,BWSC,SERVICE_AR=SH; CROSS_STRE=3548; METERED_FL=U; PLACEMENT=MIGRATED,18IH220,,,MU,MUCENT,2005,,,,1,,1177632000000,blundonr,1230076800000,{CD42EF3D-B4B3-55CF-83BC-AAC87E488F0D},-71.088170363999950,42.322325383000077,103 (STREET_FEA 1241),STREET_FEA 1241,40,derived_0_50_ft,boston-sam,45712,101 Dale St,Dale St,42.32240867,-71.08807060,Dale Street & Regent Street,45,nearest_address
654,19IH98,Downing Street,Near Downing Street & Whittier Street,IS,,1909740014,,,GPS,,,,,BWSC,SERVICE_AR=SL; CROSS_STRE=4514; METERED_FL=U; PLACEMENT=MIGRATED,19IH98,,,WA,WAWB67P,1980,,,,1,,1177632000000,mulline,1231459200000,{7C710B81-4A54-5D0A-A323-55E9A98DFAB4},-71.089393486999938,42.332550822000030,STREET_FEA 4216,STREET_FEA 4216,206,intersection_preferred_150_plus_ft,boston-sam,140100,129 Vernon St,Vernon St,42.33262267,-71.08863460,Downing Street & Whittier Street,381,nearest_intersection
665,15IH22,Nazing St,18-20 Nazing St,IS,,1509740151,,,MANUAL,,,,,BWSC,SERVICE_AR=SH; CROSS_STRE=568; METERED_FL=U; PLACEMENT=MIGRATED,15IH22,,,MU,MUCENT,1991,,,,1,,1177632000000,chalmersh,1233619200000,{0830BD2E-1F70-52AB-A3FD-39FE4C5B53DD},-71.085587780999958,42.306476033000081,20 (STREET_FEA 3011),STREET_FEA 3011,44,derived_0_50_ft,boston-sam,100459,18-20 Nazing St,Nazing St,42.30635866,-71.08562060,Blue Hill Avenue & Nazing Street,292,nearest_address
666,17HH140,Washington St,2993 Washington St,IS,,1708740143,,,MANUAL,,,,,BWSC,SERVICE_AR=SH; CROSS_STRE=1046; METERED_FL=U; PLACEMENT=MIGRATED,17HH140,,,KE,KEK81-A,1995,,,,1,,1177632000000,palaciolv,1231459200000,{A9B0C758-CD3D-5E93-AE4B-758FC8655696},-71.096570715999974,42.317667026000038,2993 (STREET_FEA 4398),STREET_FEA 4398,33,derived_0_50_ft,boston-sam,144598,2993 Washington St,Washington St,42.31771866,-71.09667060,Cobden Street & Washington Street,41,nearest_address
675,17JH290,Harlow St,44 Harlow St,IS,,1710740237,,,MANUAL,,,,,BWSC,SERVICE_AR=SL; CROSS_STRE=689; METERED_FL=U; PLACEMENT=denapolipd,17JH290,,,KE,KEK81-A,1997,,,,1,,1247702400000,blundonr,1249430400000,{5F31B85A-A5C3-5ED1-8FE6-A92CC1878AE1},-71.073314543999970,42.319753608000042,4 (STREET_FEA 1372),STREET_FEA 1372,50,derived_0_50_ft,boston-sam,69529,44 Harlow St,Harlow St,42.31970867,-71.07314059,Brook Avenue & Downey Court,168,nearest_address
681,19IH219,Zeigler St,121-123 Zeigler St,IS,,1909740255,,,MANUAL,,,,,BWSC,SERVICE_AR=SL; CROSS_STRE=4662; METERED_FL=U; PLACEMENT=denapolipd,19IH219,,,MU,MUCENT,1995,,,,1,,1247702400000,blundonr,1249430400000,{346A04DA-3121-5438-87A0-0F0CE115960D},-71.079889042999980,42.329105002000063,13 (STREET_FEA 5427),STREET_FEA 5427,73,derived_50_100_ft,boston-sam,341563,121-123 Zeigler St,Zeigler St,42.32890338,-71.07989513,Wheatley Way & Zeigler Street,38,nearest_address
704,17JH40,Woodbine St,30 Woodbine St,IS,725846400000,1710740117,,,MANUAL,,,,,BWSC,SERVICE_AR=SH; CROSS_STRE=4385; METERED_FL=U; PLACEMENT=MIGRATED,17JH40,,,MU,MUCENT,1993,,,,1,,1177632000000,blundonr,1255478400000,{C2703F3B-03BD-566B-8C60-28835726BDF9},-71.079830628999957,42.319122187000062,28 (STREET_FEA 4604),STREET_FEA 4604,53,derived_50_100_ft,boston-sam,151397,30 Woodbine St,Woodbine St,42.31917866,-71.07965059,Edgewood Street & Southwood Street,373,nearest_address
731,19JH112,Allerton Street,Near Allerton Street & Peirson Street,IS,,1910740182,,,GPS,,,,,BWSC,SERVICE_AR=SL; CROSS_STRE=193; METERED_FL=U; PLACEMENT=MIGRATED,19JH112,,,MH,MH929,1988,,,,1,,1177632000000,mulline,1231718400000,{26569E8A-4769-5ED0-90E2-B41CBFED6567},-71.070144811999967,42.329137494000065,STREET_FEA 3269,STREET_FEA 3269,161,intersection_preferred_150_plus_ft,boston-sam,111475,26 Pompeii St,Pompeii St,42.32944867,-71.07057059,Allerton Street & Peirson Street,168,nearest_intersection
760,16IH62,Howland St,82 Howland St,IS,,1609740105,,,MANUAL,,,,,BWSC,SERVICE_AR=SH; CROSS_STRE=2229; METERED_FL=U; PLACEMENT=MIGRATED,16IH62,,,DA,ADB-84-B,1990,,,,1,,1177632000000,chalmersh,1240531200000,{70F5EB26-9FD0-53AB-8D49-8E60B4B88E60},-71.087926924999977,42.313648590000071,86 (STREET_FEA 2220),STREET_FEA 2220,65,derived_50_100_ft,boston-sam,75793,82 Howland St,Howland St,42.31347866,-71.08785060,Howland Street & Humboldt Avenue,271,nearest_address
765,20JH60,Northampton St,181 Northampton St,IS,,2010740080,,,MANUAL,,,,,BWSC,SERVICE_AR=SL; CROSS_STRE=3868; METERED_FL=U; PLACEMENT=MIGRATED,20JH60,,,MU,MUCENT,1991,,,,1,,1177632000000,chalmersh,1225152000000,{3DD42B23-5D8E-5FC6-B4BF-32501A42C650},-71.079277239999954,42.337432547000049,181 (STREET_FEA 3095),STREET_FEA 3095,45,derived_0_50_ft,boston-sam,103696,181 Northampton St,Northampton St,42.33744867,-71.07911060,Northampton Street & Shawmut Avenue,244,nearest_address
766,20JH58,Northampton St,158-162 Northampton St,IS,,2010740106,,,MANUAL,,,,,BWSC,SERVICE_AR=SL; CROSS_STRE=3868; METERED_FL=U; PLACEMENT=MIGRATED,20JH58,,,KE,KEK81-A,1994,,,,1,,1177632000000,chalmersh,1225152000000,{7BB801CE-976E-589E-A059-66C90CDF2E0D},-71.078506344999937,42.336788832000025,155 (STREET_FEA 3095),STREET_FEA 3095,74,derived_50_100_ft,boston-sam,168254,158-162 Northampton St,Northampton St,42.33660446,-71.07862558,Northampton Street & Shawmut Avenue,71,nearest_address
768,20IH96,Washington St,1948-1950 Washington St,IS,631152000000,2009740192,,,MANUAL,,,,,BWSC,SERVICE_AR=SL; CROSS_STRE=4167; METERED_FL=U; PLACEMENT=MIGRATED,20IH96,,,KE,KEK81-A,1994,,,,1,,1177632000000,chalmersh,1225152000000,{12928FF8-85B8-5D7D-AD2E-8E9F176C8F17},-71.079866794999987,42.334371155000042,1942 OPP (STREET_FEA 4400),STREET_FEA 4400,140,derived_100_150_ft,boston-sam,423245,1948-1950 Washington St,Washington St,42.33408213,-71.07952367,Thorndike Street & Washington Street,66,nearest_address
772,19IH66,Dudley St,67 Dudley St,IS,,1909740155,,,MANUAL,,,,,BWSC,SERVICE_AR=SH; CROSS_STRE=2371; METERED_FL=U; PLACEMENT=MIGRATED,19IH66,,,US,USMET250,1988,,,,1,,1177632000000,mulline,1231459200000,{1CAAB53D-44F2-5495-9F3F-ADD25489E11A},-71.087107841999966,42.329127739000057,67 (STREET_FEA 1390),STREET_FEA 1390,34,derived_0_50_ft,boston-sam,49822,67 Dudley St,Dudley St,42.32903567,-71.08712260,Dudley Street & Kenilworth Street,100,nearest_address
790,18IH158,Akron St,7 Akron St,IS,,1809740062,,,MANUAL,,,,,BWSC,SERVICE_AR=SH; CROSS_STRE=149; METERED_FL=U; PLACEMENT=MIGRATED,18IH158,,,WA,WAWB67P,1980,,,,1,,1177632000000,palaciolv,1231718400000,{A1E70C2D-FA93-59FE-B393-FCF397B8A0DA},-71.085720984999966,42.325772743000073,7 (STREET_FEA 150),STREET_FEA 150,46,derived_0_50_ft,boston-sam,1279,7 Akron St,Akron St,42.32569867,-71.08586060,Akron Street & Alpine Street,237,nearest_address
792,18HH82,Columbus Ave,1544 Columbus Ave,IS,,1808740172,,,MANUAL,,,,,BWSC,SERVICE_AR=SH; CROSS_STRE=3601; METERED_FL=U; PLACEMENT=MIGRATED,18HH82,,,MU,MUCENT,2006,,,,1,,1177632000000,palaciolv,1231718400000,{FF1A947E-8A47-5DB4-ADE5-A28400A2EFC1},-71.098308489999965,42.322968769000056,1548 (STREET_FEA 1076),STREET_FEA 1076,70,derived_50_100_ft,boston-sam,421321,1544 Columbus Ave,Columbus Ave,42.32313104,-71.09816751,Centre Street & Columbus Avenue,156,nearest_address
822,18JH20,Moreland St,84 Moreland St,IS,757382400000,1810740166,,,MANUAL,,,,,BWSC,SERVICE_AR=SH; CROSS_STRE=1125; METERED_FL=U; PLACEMENT=MIGRATED,18JH20,,,KE,KEK81-A,1994,,,,1,,1177632000000,mulline,1231372800000,{3CE15869-D2B1-50B7-819B-DFFAC5A96C1F},-71.078175371999976,42.323572976000037,84 (STREET_FEA 2921),STREET_FEA 2921,54,derived_50_100_ft,boston-sam,97435,84 Moreland St,Moreland St,42.32366867,-71.07802059,Copeland Street & Moreland Street,189,nearest_address
834,16JH96,Wayland St,77 Wayland St,IS,1186272000000,1610740101,,,MANUAL,,,,,BWSC,SERVICE_AR=SH; CROSS_STRE=2211; METERED_FL=U; PLACEMENT=MIGRATED,16JH96,,,KE,KEK81-A,2007,,,,1,,1177632000000,blundonr,1249430400000,{28CF5DEA-76E6-5685-9035-CA61B61F1C5D},-71.075110151999979,42.313739516000055,77 (STREET_FEA 4415),STREET_FEA 4415,48,derived_0_50_ft,boston-sam,146662,77 Wayland St,Wayland St,42.31386066,-71.07503959,Howard Avenue & Wayland Street,49,nearest_address
836,18IH192,Kearsarge Avenue,Near Kearsarge Avenue & Warren Street,IS,1181606400000,1809740003,,,MANUAL,,,,,BWSC,SERVICE_AR=SH; CROSS_STRE=1390; METERED_FL=U; PLACEMENT=MIGRATED,18IH192,,,KE,KEK81-A,2007,,,,1,,1177632000000,chalmersh,1252627200000,{E981EA97-ACA6-5E64-A172-59134C451FC0},-71.083329056999958,42.327453907000063,90 OPP (STREET_FEA 4385),STREET_FEA 4385,167,intersection_preferred_150_plus_ft,boston-sam,143331,94 Warren St,Warren St,42.32726867,-71.08276060,Kearsarge Avenue & Warren Street,66,nearest_intersection
851,18HH174,Highland Park Ave,38 Highland Park Ave,IS,,1808740207,,,GIS,,,,,BWSC,SERVICE_AR=SH; CROSS_STRE=858; METERED_FL=U; PLACEMENT=MIGRATED,18HH174,,,DA,ADB-62-B,1990,,,,1,,1177632000000,blundonr,1255478400000,{8606E829-E189-5246-B685-23A1FDB53B9C},-71.094037794999963,42.326351123000052,18-20 (STREET_FEA 851),STREET_FEA 851,65,derived_50_100_ft,boston-sam,73855,38 Highland Park Ave,Highland Park Ave,42.32626867,-71.09425060,Highland Park Avenue & Highland Park Street,99,nearest_address
856,18JH16,Blue Hill Ave,64-64A Blue Hill Ave,IS,,1810740205,,,MANUAL,,,,,BWSC,SERVICE_AR=SH; CROSS_STRE=2921; METERED_FL=U; PLACEMENT=MIGRATED,18JH16,,,WA,WAWB67P,1991,,,,1,,1177632000000,mulline,1231372800000,{56B44DE8-0BEE-53CC-B50A-3AC992BF1861},-71.076652969999941,42.322792413000059,66 (STREET_FEA 568),STREET_FEA 568,76,derived_50_100_ft,boston-sam,162128,64-64A Blue Hill Ave,Blue Hill Ave,42.32288444,-71.07639982,Blue Hill Avenue & Moreland Street,39,nearest_address
868,18JH200,Magazine St,100 Magazine St,IS,,1810740240,,,MANUAL,,,,,BWSC,SERVICE_AR=SL; CROSS_STRE=2366; METERED_FL=U; PLACEMENT=MIGRATED,18JH200,,,US,USMET250,2000,,,,1,,1177632000000,mulline,1231372800000,{63B08AB1-ABEC-597A-AB7A-82BC45F9B4B6},-71.070119438999939,42.327248956000062,124-126 (STREET_FEA 2644),STREET_FEA 2644,89,derived_50_100_ft,boston-sam,88166,100 Magazine St,Magazine St,42.32748659,-71.07003545,Kemble Street & Magazine Street,194,nearest_address
919,16HH168,Washington St,3055 Washington St,IS,1154563200000,1608740005,,,MANUAL,,,,,BWSC,SERVICE_AR=SH; CROSS_STRE=4398; METERED_FL=U; PLACEMENT=MIGRATED,16HH168,,,MU,MUCENT,2005,,,,1,,1177632000000,blundonr,1235779200000,{4C476641-32BE-58E4-998C-223EDB3FA2BD},-71.097873731999982,42.316473975000065,STREET_FEA 4358,STREET_FEA 4358,47,derived_0_50_ft,boston-sam,144611,3055 Washington St,Washington St,42.31647666,-71.09804760,Walnut Park & Washington Street,51,nearest_address
935,15IH8,Seaver St,168 Seaver St,IS,,1509740099,,,MANUAL,,,,,BWSC,SERVICE_AR=SH; CROSS_STRE=1502; METERED_FL=U; PLACEMENT=MIGRATED,15IH8,,,DA,ADB-84-B,1990,,,,1,,1177632000000,blundonr,1255478400000,{8111D183-D38C-5095-9574-98F24CE331F1},-71.090009938999970,42.308434953000074,168 (STREET_FEA 3838),STREET_FEA 3838,98,derived_50_100_ft,boston-sam,124153,168 Seaver St,Seaver St,42.30868866,-71.08989060,Elm Hill Avenue & Seaver Street,393,nearest_address
944,19IH176,Eustis St,20 Eustis St,IS,,1909740046,,,GIS,,,,,BWSC,SERVICE_AR=SL; CROSS_STRE=2031; METERED_FL=U; PLACEMENT=MIGRATED,19IH176,,,MU,MUCENT,1993,,,,1,,1177632000000,blundonr,1255478400000,{E98D8B41-681C-5DE8-A404-01F3DCF42FB0},-71.081203503999973,42.331420617000049,26 (STREET_FEA 1564),STREET_FEA 1564,68,derived_50_100_ft,boston-sam,54573,20 Eustis St,Eustis St,42.33160667,-71.08123360,Eustis Street & Renfrew Street,21,nearest_address
949,16IH38,Crawford St,53 Crawford St,IS,,1609740145,,,MANUAL,,,,,BWSC,SERVICE_AR=SH; CROSS_STRE=1502; METERED_FL=U; PLACEMENT=MIGRATED,16IH38,,,KE,KEK81,2010,,,,1,,1177632000000,chalmersh,1240531200000,{2D5E549C-E95A-5CA8-A9FE-A0436AA3BE1E},-71.087020876999986,42.312318575000063,55 (STREET_FEA 1176),STREET_FEA 1176,57,derived_50_100_ft,boston-sam,44108,53 Crawford St,Crawford St,42.31239866,-71.08684060,Pleasanton Street & Ruthven Street,355,nearest_address
961,17IH42,Brinton St,11 Brinton St,IS,,1709740081,,,GIS,,,,,BWSC,SERVICE_AR=SH; CROSS_STRE=676; METERED_FL=U; PLACEMENT=MIGRATED,17IH42,,,DA,ADB-84-B,1990,,,,1,,1177632000000,blundonr,1244505600000,{518A8726-F736-59FC-A216-6E19C195CF6E},-71.092657551999935,42.320279742000025,11 (STREET_FEA 1047),STREET_FEA 1047,43,derived_0_50_ft,boston-sam,20440,11 Brinton St,Brinton St,42.32019866,-71.09254060,Brinton Street & Codman Park,35,nearest_address
971,15IH40,Elm Hill Ave,122 Elm Hill Ave,IS,,1509740100,,,MANUAL,,,,,BWSC,SERVICE_AR=SH; CROSS_STRE=695; METERED_FL=U; PLACEMENT=MIGRATED,15IH40,,,KE,KEK81-A,1995,,,,1,,1177632000000,chalmersh,1233532800000,{3AE6FC35-B76E-51BA-9A52-10242B67BFF8},-71.088538829999948,42.308309284000075,126 OPP (STREET_FEA 1502),STREET_FEA 1502,103,derived_100_150_ft,boston-sam,164980,122 Elm Hill Ave,Elm Hill Ave,42.30830389,-71.08815532,Brookledge Street & Elm Hill Avenue,58,nearest_address
973,17IH188,Sherman St,7 Sherman St,IS,,1709740031,,,MANUAL,,,,,BWSC,SERVICE_AR=SH; CROSS_STRE=1241; METERED_FL=U; PLACEMENT=MIGRATED,17IH188,,,MU,MUCENT,2003,,,,1,,1177632000000,palaciolv,1231459200000,{B307F218-43E6-5F77-A1FD-A6C4DB18BAF2},-71.082951226999967,42.321243902000049,7 (STREET_FEA 3886),STREET_FEA 3886,31,derived_0_50_ft,boston-sam,126903,7 Sherman St,Sherman St,42.32126867,-71.08306060,Dale Street & Sherman Street,217,nearest_address
976,16IH16,Homestead St,39-43 Homestead St,IS,,1609740135,,,GIS,,,,,BWSC,SERVICE_AR=SH; CROSS_STRE=2023; METERED_FL=U; PLACEMENT=MIGRATED,16IH16,,,KE,KEK81,2010,,,,1,,1177632000000,blundonr,1255478400000,{AB23E1FD-4E07-5DE6-B62F-EDC5986DF2F0},-71.092191405999984,42.312697930000070,48 OPP (STREET_FEA 2194),STREET_FEA 2194,44,derived_0_50_ft,boston-sam,342767,39-43 Homestead St,Homestead St,42.31267285,-71.09235059,Harold Street & Homestead Street,146,nearest_address
979,17IH192,Rockland Ave,13 Rockland Ave,IS,1022630400000,1709740024,,,MANUAL,,,,,BWSC,SERVICE_AR=SH; CROSS_STRE=3642; METERED_FL=U; PLACEMENT=MIGRATED,17IH192,,,MU,MUCENT,2002,,,,1,,1177632000000,palaciolv,1231459200000,{B388A1EF-E4D0-5CA8-A820-8CE4EEC10BCA},-71.084055313999954,42.321529719000068,10 OPP (STREET_FEA 3640),STREET_FEA 3640,57,derived_50_100_ft,boston-sam,117665,13 Rockland Ave,Rockland Ave,42.32148867,-71.08426060,Rockland Avenue & Rockland Street,196,nearest_address
1009,17IH18,Walnut Ave,286 Walnut Ave,IS,,1709740221,,,MANUAL,,,,,BWSC,SERVICE_AR=SH; CROSS_STRE=2190; METERED_FL=U; PLACEMENT=MIGRATED,17IH18,,,MH,MH929,2001,,,,1,,1177632000000,chalmersh,1240790400000,{D86BB8AC-4501-5A05-8932-9A8B07E482F0},-71.091468984999949,42.317100036000056,286 (STREET_FEA 4357),STREET_FEA 4357,44,derived_0_50_ft,boston-sam,141928,286 Walnut Ave,Walnut Ave,42.31703366,-71.09133060,Crawford Street & Holworthy Street,56,nearest_address
1013,18IH74,Juniper St,31-35 Juniper St,IS,,1809740066,,,MANUAL,,,,,BWSC,SERVICE_AR=SH; CROSS_STRE=5179; METERED_FL=U; PLACEMENT=MIGRATED,18IH74,,,US,USSEN,1985,,,,1,,1177632000000,palaciolv,1231718400000,{E20CA8C2-4C0B-583C-B269-1C5E9A6F135F},-71.088716479999960,42.325608129000045,34 OPP (STREET_FEA 2352),STREET_FEA 2352,36,derived_0_50_ft,boston-sam,80402,31-35 Juniper St,Juniper St,42.32562068,-71.08858369,Juniper Street & Juniper Terrace,72,nearest_address
1031,17IH212,Charlame St,101 Charlame St,IS,,1709740249,,,MANUAL,,,,,BWSC,SERVICE_AR=SH; CROSS_STRE=49; METERED_FL=U; PLACEMENT=mulline,17IH212,,,KE,KEK81-A,1994,,,,1,,1247616000000,blundonr,1249430400000,{2C05265A-D60B-5F44-BAFE-08DC276BD187},-71.083621566999966,42.319126110000070,99 (STREET_FEA 843),STREET_FEA 843,47,derived_0_50_ft,boston-sam,374011,101 Charlame St,Charlame St,42.31900867,-71.08355060,Charlame Street & Sherman Street,24,nearest_address
1075,15IH24,Nazing St,36 Nazing St,IS,,1509740143,,,MANUAL,,,,,BWSC,SERVICE_AR=SH; CROSS_STRE=2687; METERED_FL=U; PLACEMENT=MIGRATED,15IH24,,,MU,MUCENT,1991,,,,1,,1177632000000,chalmersh,1233619200000,{7FD2EDAD-5E8D-5DF0-9BF7-40251493FF26},-71.086454213999957,42.306851533000042,39 OPP (STREET_FEA 3011),STREET_FEA 3011,81,derived_50_100_ft,boston-sam,100468,36 Nazing St,Nazing St,42.30665866,-71.08630060,Maple Street & Nazing Street,194,nearest_address
1079,15IH34,Wayne St,18 Wayne St,IS,,1509740137,,,MANUAL,,,,,BWSC,SERVICE_AR=SH; CROSS_STRE=568; METERED_FL=U; PLACEMENT=MIGRATED,15IH34,,,DA,ADB-84-B,1990,,,,1,,1177632000000,chalmersh,1233619200000,{8CAC37D0-177C-55EB-A041-E6FB10855CD5},-71.085329958999978,42.307111657000064,14 (STREET_FEA 4416),STREET_FEA 4416,55,derived_50_100_ft,boston-sam,146679,18 Wayne St,Wayne St,42.30702866,-71.08550060,Hartwell Street & Schuyler Street,386,nearest_address
1102,17IH206,Pickering Ave,7 Pickering Ave,IS,1024617600000,1709740243,,,GIS,,,,,BWSC,SERVICE_AR=SH; CROSS_STRE=4357; METERED_FL=U; PLACEMENT=MIGRATED,17IH206,,,MU,MUCENT,2002,,,,1,,1177632000000,blundonr,1255478400000,{EEF61F27-67A0-57D1-96BE-C3287E7B321D},-71.084490964999986,42.321531525000069,7 (STREET_FEA 3299),STREET_FEA 3299,37,derived_0_50_ft,boston-sam,110168,7 Pickering Ave,Pickering Ave,42.32143867,-71.08455060,Dale Street & Laurel Street,244,nearest_address
1127,20IH92,Columbus Ave,772 Columbus Ave,IS,738892800000,2009740059,,,MANUAL,,,,,BWSC,SERVICE_AR=SL; CROSS_STRE=1166; METERED_FL=U; PLACEMENT=MIGRATED,20IH92,,,MU,MUCENT,1993,,,,1,,1177632000000,blundonr,1224460800000,{424E767E-8CE3-5175-8576-C4D63D3D06F0},-71.086376683999958,42.337140383000076,772 (STREET_FEA 1077),STREET_FEA 1077,39,derived_0_50_ft,boston-sam,36076,772 Columbus Ave,Columbus Ave,42.33704867,-71.08630060,Columbus Avenue & Cunard Street,92,nearest_address
1128,21IH62,Columbus Ave,650 Columbus Ave,IS,1117584000000,2109740330,,,GIS,,,,,BWSC,SERVICE_AR=SL; CROSS_STRE=795; METERED_FL=U; PLACEMENT=MIGRATED,21IH62,,,MU,MUCENT,2005,,,,1,,1177632000000,blundonr,1224460800000,{34A8F486-236E-5974-84D7-F920DC43A15E},-71.083613284999956,42.338940353000055,650 (STREET_FEA 1077),STREET_FEA 1077,40,derived_0_50_ft,boston-sam,36066,650 Columbus Ave,Columbus Ave,42.33884967,-71.08352760,Camden Street & Columbus Avenue,159,nearest_address
1152,21IH98,Columbus Ave,612 Columbus Ave,IS,1022889600000,2109740284,,,GIS,,,,,BWSC,SERVICE_AR=SL; CROSS_STRE=3095; METERED_FL=U; PLACEMENT=MIGRATED,21IH98,,,MU,MUCENT,2002,,,,1,,1177632000000,blundonr,1224460800000,{E4A26142-2BA7-50BC-AB12-CBA90C0AFEC3},-71.082665025999972,42.339706444000058,612 (STREET_FEA 1077),STREET_FEA 1077,40,derived_0_50_ft,boston-sam,36031,612 Columbus Ave,Columbus Ave,42.33960067,-71.08262060,Columbus Avenue & Northampton Street,118,nearest_address
1178,18JH115,Dunmore St,16 Dunmore St,IS,,1810740082,,,MANUAL,,,,,BWSC,SERVICE_AR=SL; CROSS_STRE=2644; METERED_FL=U; PLACEMENT=MIGRATED,18JH115,,,US,USMET250,1988,,,,1,,1177632000000,palaciolv,1231718400000,{4FA0C028-AE33-5F8F-85A2-EBB6F54E8F42},-71.074544399999979,42.325705230000040,20 OPP (STREET_FEA 1404),STREET_FEA 1404,59,derived_50_100_ft,boston-sam,49987,16 Dunmore St,Dunmore St,42.32586806,-71.07452551,Blue Hill Avenue & Dudley Street,193,nearest_address
1186,18JH130,Forest St,37 Forest St,IS,,1810740045,,,MANUAL,,,,,BWSC,SERVICE_AR=SH; CROSS_STRE=4314; METERED_FL=U; PLACEMENT=MIGRATED,18JH130,,,MU,MUCENT,1991,,,,1,,1177632000000,blundonr,1255478400000,{E2798F48-7AC8-592C-8C75-69E0C7A78041},-71.077699815999949,42.326690780000035,33 (STREET_FEA 1692),STREET_FEA 1692,41,derived_0_50_ft,boston-sam,59294,37 Forest St,Forest St,42.32657867,-71.07770059,Forest Street & Vine Street,105,nearest_address
1197,17IH164,Warren St,316 Warren St,IS,1181606400000,1709740088,,,MANUAL,,,,,BWSC,SERVICE_AR=SH; CROSS_STRE=4604; METERED_FL=U; PLACEMENT=MIGRATED,17IH164,,,DA,ADB-84-B,1990,,,,1,,1177632000000,chalmersh,1251849600000,{028CB566-3CDA-536B-B1F7-F0FD50DCEF0C},-71.081339875999959,42.320065849000059,316 (STREET_FEA 4385),STREET_FEA 4385,38,derived_0_50_ft,boston-sam,143248,316 Warren St,Warren St,42.32007867,-71.08120060,Warren Street & Woodbine Street,97,nearest_address
1213,18IH32,Hulbert St,18 Hulbert St,IS,880934400000,1809740166,,,GPS,,,,,BWSC,SERVICE_AR=SH; CROSS_STRE=3548; METERED_FL=U; PLACEMENT=MIGRATED,18IH32,,,KE,KEK81-A,1997,,,,1,,1177632000000,palaciolv,1231718400000,{972BE76D-0764-547E-9D95-47526187C45F},-71.088175193999973,42.323595369000031,18 (STREET_FEA 2226),STREET_FEA 2226,79,derived_50_100_ft,boston-sam,158280,18 Hulbert St,Hulbert St,42.32369823,-71.08791866,Hulbert Street & Regent Street,176,nearest_address
1215,17IH22,Humboldt Ave,80 Humboldt Ave,IS,,1709740235,,,MANUAL,,,,,BWSC,SERVICE_AR=SH; CROSS_STRE=2229; METERED_FL=U; PLACEMENT=MIGRATED,17IH22,,,KE,KEK81-A,1994,,,,1,,1177632000000,chalmersh,1240790400000,{A969DAE6-36EA-566C-BDB7-39A256FCFA3F},-71.085800408999944,42.316759282000078,STREET_FEA 4199,STREET_FEA 4199,124,derived_100_150_ft,boston-sam,342506,80 Humboldt Ave,Humboldt Ave,42.31668292,-71.08624912,Hazelwood Street & Townsend Street,170,nearest_address
1244,18IH76,Logan St,12-14 Logan St,IS,,1809740051,,,MANUAL,,,,,BWSC,SERVICE_AR=SH; CROSS_STRE=4170; METERED_FL=U; PLACEMENT=MIGRATED,18IH76,,,DA,ADB-84-B,1990,,,,1,,1177632000000,palaciolv,1231718400000,{8FD13D5B-7003-5EBF-BC81-C700C7C0B8D5},-71.090365140999950,42.326121041000079,12-14 (STREET_FEA 2583),STREET_FEA 2583,33,derived_0_50_ft,boston-sam,86941,12-14 Logan St,Logan St,42.32617867,-71.09027060,Logan Street & Thornton Street,227,nearest_address
1254,20IH173,Columbus Avenue,Near Columbus Avenue & Douglass Park,IS,612662400000,2009740250,,,MANUAL,,,,,BWSC,SERVICE_AR=SL; CROSS_STRE=1077; METERED_FL=U; PLACEMENT=MIGRATED,20IH173,,,US,USMET250,1996,,,,1,,1177632000000,chalmersh,1225152000000,{B25BD10E-340F-56CA-8A7C-B40DF790E16F},-71.083706517999985,42.338423930000033,STREET_FEA 2507,STREET_FEA 2507,162,intersection_preferred_150_plus_ft,boston-sam,36066,650 Columbus Ave,Columbus Ave,42.33884967,-71.08352760,Columbus Avenue & Douglass Park,151,nearest_intersection
1256,19IH30,Highland St,21-21A Highland St,IS,,1909740145,,,GIS,,,,,BWSC,SERVICE_AR=SH; CROSS_STRE=3084; METERED_FL=U; PLACEMENT=MIGRATED,19IH30,,,SM,SMH205,1978,,,,1,,1177632000000,blundonr,1255478400000,{829CAB4A-1DD8-5A0D-8A92-37C22A09B9FF},-71.091671942999938,42.329305971000053,21 (STREET_FEA 2143),STREET_FEA 2143,31,derived_0_50_ft,boston-sam,166222,21-21A Highland St,Highland St,42.32932195,-71.09178324,Highland Street & Norfolk Street,126,nearest_address
1259,18IH94,Circuit St,19-29 Circuit St,IS,1155513600000,1809740152,,,GPS,,,,,BWSC,SERVICE_AR=SH; CROSS_STRE=2119; METERED_FL=U; PLACEMENT=MIGRATED,18IH94,,,MU,MUCENT,2005,,,,1,,1177632000000,blundonr,1244505600000,{E9E03B22-16F2-51B6-8C99-A9684BD20F7C},-71.085468887999980,42.323656758000027,18 OPP (STREET_FEA 995),STREET_FEA 995,77,derived_50_100_ft,boston-sam,346686,19-29 Circuit St,Circuit St,42.32380884,-71.08527102,Circuit Street & Herman Street,37,nearest_address
1263,18IH82,Lambert Ave,65 Lambert Ave,IS,,1809740032,,,MANUAL,,,,,BWSC,SERVICE_AR=SH; CROSS_STRE=2583; METERED_FL=U; PLACEMENT=MIGRATED,18IH82,,,US,USMET250,1992,,,,1,,1177632000000,blundonr,1255478400000,{E1FE668E-4A45-542E-A625-7A947B84C8A2},-71.091115903999935,42.326575200000036,65 (STREET_FEA 2439),STREET_FEA 2439,37,derived_0_50_ft,boston-sam,83635,65 Lambert Ave,Lambert Ave,42.32661867,-71.09124060,Lambert Avenue & Logan Street,38,nearest_address
1276,16JH122,Hartford St,53 Hartford St,IS,675734400000,1610740075,,,MANUAL,,,,,BWSC,SERVICE_AR=SH; CROSS_STRE=1218; METERED_FL=U; PLACEMENT=MIGRATED,16JH122,,,MU,MUCENT,1991,,,,1,,1177632000000,palaciolv,1231372800000,{4FCF8C5E-C099-58D8-9BD4-8CE922675F9F},-71.073185620999936,42.314516385000047,53 (STREET_FEA 2038),STREET_FEA 2038,45,derived_0_50_ft,boston-sam,70236,53 Hartford St,Hartford St,42.31459866,-71.07331059,Hartford Street & Sargent Street,76,nearest_address
1285,19HH140,Columbus Ave,1170 Columbus Ave,IS,,1908740077,,,GPS,,,,,BWSC,SERVICE_AR=SH; CROSS_STRE=5798; METERED_FL=U; PLACEMENT=MIGRATED,19HH140,,,KE,KEK81-A,1995,,,,1,,1177632000000,BlundoNR,1291766400000,{F14872F6-1F60-5085-A67F-F8EAC372E494},-71.095044079999980,42.330716854000059,1234 (STREET_FEA 1076),STREET_FEA 1076,135,derived_100_150_ft,boston-sam,163660,1170 Columbus Ave,Columbus Ave,42.33083711,-71.09457114,Anita Terrace & Elmwood Street,199,nearest_address
1286,20JH6,Harrison Avenue,Near Harrison Avenue & Newcomb Street,IS,,2010740343,,,GPS,,,,,BWSC,SERVICE_AR=SL; CROSS_STRE=3054; METERED_FL=U; PLACEMENT=MIGRATED,20JH6,,,DA,ADB-84-B,1990,,,,1,,1177632000000,chalmersh,1225238400000,{619D391E-348B-5151-8534-AB1081F35600},-71.077838086999975,42.333142408000072,931 (STREET_FEA 2032),STREET_FEA 2032,224,intersection_preferred_150_plus_ft,boston-sam,135783,47 Thorndike St,Thorndike St,42.33303267,-71.07865860,Harrison Avenue & Newcomb Street,82,nearest_intersection
1298,15IH98,Blue Hill Ave,483-487 Blue Hill Ave,IS,,1509740087,,,MANUAL,,,,,BWSC,SERVICE_AR=SH; CROSS_STRE=568; METERED_FL=U; PLACEMENT=MIGRATED,15IH98,,,DA,ADB-84-B,1995,,,,1,,1177632000000,chalmersh,1233532800000,{B0344B09-3074-58CF-814B-87702B8A6ACC},-71.083582810999985,42.308652198000061,7 (STREET_FEA 948),STREET_FEA 948,61,derived_50_100_ft,boston-sam,16482,483-487 Blue Hill Ave,Blue Hill Ave,42.30868466,-71.08335860,Blue Hill Avenue & Cheney Street,109,nearest_address
1301,16JH82,Dacia St,22 Dacia St,IS,,1610740062,,,GIS,,,,,BWSC,SERVICE_AR=SH; CROSS_STRE=1368; METERED_FL=U; PLACEMENT=MIGRATED,16JH82,,,KE,KEK81-A,1997,,,,1,,1177632000000,blundonr,1244505600000,{BE11F677-AEA3-5120-8CA3-995688E86A26},-71.077437725999971,42.314857435000079,21 OPP (STREET_FEA 1237),STREET_FEA 1237,29,derived_0_50_ft,boston-sam,45577,22 Dacia St,Dacia St,42.31483466,-71.07754059,Dacia Street & Wayland Street,165,nearest_address
1314,18IH225,Rockland St,19 Rockland St,IS,,1809740223,,,GPS,,,,,BWSC,SERVICE_AR=SH; CROSS_STRE=3640; METERED_FL=U; PLACEMENT=blundonr,18IH225,,,MU,MUCENT,1976,,,,1,,1241481600000,blundonr,1249430400000,{D0312B80-5003-5442-86EB-D8705B8B484C},-71.083866736999937,42.322105589000046,21 (STREET_FEA 3642),STREET_FEA 3642,56,derived_50_100_ft,boston-sam,374622,19 Rockland St,Rockland St,42.32223911,-71.08376140,Rockland Avenue & Rockland Street,42,nearest_address
1334,17IH16,Haley St,1 Haley St,IS,,1709740170,,,MANUAL,,,,,BWSC,SERVICE_AR=SH; CROSS_STRE=1974; METERED_FL=U; PLACEMENT=MIGRATED,17IH16,,,KE,KEK81-A,2007,,,,1,,1177632000000,palaciolv,1231459200000,{6E83C877-85E6-51C2-907C-3A4AAAD27932},-71.092373612999950,42.318189863000043,STREET_FEA 2028,STREET_FEA 2028,73,derived_50_100_ft,boston-sam,68050,1 Haley St,Haley St,42.31798866,-71.09237060,Haley Street & Harrishof Street,102,nearest_address
1341,17IH140,Laurel St,35 Laurel St,IS,,1709740098,,,MANUAL,,,,,BWSC,SERVICE_AR=SH; CROSS_STRE=843; METERED_FL=U; PLACEMENT=MIGRATED,17IH140,,,MU,MUCENT,2005,,,,1,,1177632000000,palaciolv,1231459200000,{7566521B-D7E1-5ACA-82E9-64C040853604},-71.085770878999938,42.319872757000041,STREET_FEA 2466,STREET_FEA 2466,43,derived_0_50_ft,boston-sam,342505,35 Laurel St,Laurel St,42.31996884,-71.08568043,Humboldt Avenue & Laurel Street,57,nearest_address
1347,18JH160,Marshfield St,45-47 Marshfield St,IS,,1810740192,,,GIS,,,,,BWSC,SERVICE_AR=SL; CROSS_STRE=3628; METERED_FL=U; PLACEMENT=MIGRATED,18JH160,,,MU,MUCENT,1992,,,,1,,1177632000000,blundonr,1255478400000,{C9CB3496-1119-54D2-B00C-F5A405B67E1C},-71.068531848999953,42.323029223000049,45-47 (STREET_FEA 2724),STREET_FEA 2724,45,derived_0_50_ft,boston-sam,91702,45-47 Marshfield St,Marshfield St,42.32290867,-71.06856059,Marshfield Street & Robey Street,26,nearest_address
1352,18IH174,Moreland St,32 Moreland St,IS,757382400000,1809740084,,,MANUAL,,,,,BWSC,SERVICE_AR=SH; CROSS_STRE=1033; METERED_FL=U; PLACEMENT=MIGRATED,18IH174,,,KE,KEK81-A,1994,,,,1,,1177632000000,blundonr,1255478400000,{8049274D-9252-5601-9ED6-D773FB491FF2},-71.080947453999954,42.325157248000039,35 OPP (STREET_FEA 2921),STREET_FEA 2921,55,derived_50_100_ft,boston-sam,97389,32 Moreland St,Moreland St,42.32529867,-71.08088060,Cleveland Street & Moreland Street,85,nearest_address
1357,17JH112,Folsom St,28 Folsom St,IS,,1710740152,,,MANUAL,,,,,BWSC,SERVICE_AR=SH; CROSS_STRE=4631; METERED_FL=U; PLACEMENT=MIGRATED,17JH112,,,WA,WAWB67P,1994,,,,1,,1177632000000,palaciolv,1231718400000,{93FB2FE6-338B-59A0-A357-D49903889E93},-71.071941526999979,42.318261548000066,28 (STREET_FEA 1685),STREET_FEA 1685,36,derived_0_50_ft,boston-sam,59157,28 Folsom St,Folsom St,42.31816866,-71.07190059,Folsom Street & Woodward Park Street,34,nearest_address
1362,20IH64,Sojourner Truth Ct,2-18 Sojourner Truth Ct,IS,,2009740183,,,MANUAL,,,,,BWSC,SERVICE_AR=SL; CROSS_STRE=2386; METERED_FL=U; PLACEMENT=MIGRATED,20IH64,,,KE,KEK81,2011,,,,1,,1177632000000,mulline,1231891200000,{D3534A57-EDDB-5432-ADF7-6AF2ED753D68},-71.085040634999984,42.334565760000032,STREET_FEA 692,STREET_FEA 692,125,derived_100_150_ft,boston-sam,344024,2-18 Sojourner Truth Ct,Sojourner Truth Ct,42.33439575,-71.08463718,Melnea Cass Boulevard & Sojourner Truth Court,134,nearest_address
1365,17JH82,W Cottage St,70 W Cottage St,IS,,1710740060,,,MANUAL,,,,,BWSC,SERVICE_AR=SH; CROSS_STRE=4628; METERED_FL=U; PLACEMENT=MIGRATED,17JH82,,,MU,MUCENT,2000,,,,1,,1177632000000,palaciolv,1231718400000,{8165F69E-8868-5A82-BBA4-45D85676E906},-71.075641178999945,42.320515521000061,69 OPP (STREET_FEA 78),STREET_FEA 78,57,derived_50_100_ft,boston-sam,43707,70 W Cottage St,W Cottage St,42.32039867,-71.07578059,West Cottage Street & Woodville Street,38,nearest_address
1367,18JH78,Mount Pleasant Ave,120 Mount Pleasant Ave,IS,,1810740118,,,GIS,,,,,BWSC,SERVICE_AR=SH; CROSS_STRE=1594; METERED_FL=U; PLACEMENT=MIGRATED,18JH78,,,MU,MUCENT,1992,,,,1,,1177632000000,blundonr,1244505600000,{E5326ACA-CA4F-5D0D-83D3-049AB2572E1A},-71.076890432999960,42.324921056000051,166 OPP (STREET_FEA 2952),STREET_FEA 2952,59,derived_50_100_ft,boston-sam,167903,120 Mount Pleasant Ave,Mount Pleasant Ave,42.32502917,-71.07672933,Fairland Street & Mount Pleasant Avenue,335,nearest_address
1379,19HH58,Cedar Street,Near Cedar Street & Columbus Avenue,IS,,1908740170,,,MANUAL,,,,,BWSC,SERVICE_AR=SH; CROSS_STRE=858; METERED_FL=U; PLACEMENT=MIGRATED,19HH58,,,MU,MUCENT,2005,,,,1,,1177632000000,mulline,1231459200000,{1F0D80B5-CBFF-5BD5-9C88-5F7B69E15BD8},-71.096987701999979,42.328022438000062,STREET_FEA 1076,STREET_FEA 1076,232,intersection_preferred_150_plus_ft,boston-sam,355829,1234 Columbus Ave BLDG 4,Columbus Ave,42.32847106,-71.09637399,Cedar Street & Columbus Avenue,46,nearest_intersection
1385,18JH218,Moreland St,143 Moreland St,IS,,1810740252,,,MANUAL,,,,,BWSC,SERVICE_AR=SL; CROSS_STRE=1313; METERED_FL=U; PLACEMENT=denapolipd,18JH218,,,KE,KEK81-A,1998,,,,1,,1247702400000,orrda,1447286400000,{00AD782E-012B-5DB6-8FC2-2184D1D7AD98},-71.074895159999983,42.322073725000052,143 (STREET_FEA 2921),STREET_FEA 2921,39,derived_0_50_ft,boston-sam,97368,143 Moreland St,Moreland St,42.32196866,-71.07492059,Dennis Street & Moreland Street,183,nearest_address
1386,18JH198,Norfolk Ave,124 Norfolk Ave,IS,,1810740028,,,MANUAL,,,,,BWSC,SERVICE_AR=SL; CROSS_STRE=2644; METERED_FL=U; PLACEMENT=MIGRATED,18JH198,,,KE,KEK81-A,1995,,,,1,,1177632000000,palaciolv,1231718400000,{81C0C1B1-A66F-5C69-A409-D7951EAD7603},-71.070917805999954,42.327096764000032,STREET_FEA 2366,STREET_FEA 2366,58,derived_50_100_ft,boston-sam,103094,124 Norfolk Ave,Norfolk Ave,42.32712867,-71.07113059,Kemble Street & Magazine Street,71,nearest_address
1397,18JH120,Dudley St,366-378 Dudley St,IS,,1810740242,,,MANUAL,,,,,BWSC,SERVICE_AR=SL; CROSS_STRE=1994; METERED_FL=U; PLACEMENT=MIGRATED,18JH120,,,KE,KEK81-A,1998,,,,1,,1177632000000,mulline,1231372800000,{E7C7BC0F-D687-5C92-8CD0-7ADD8BDA3152},-71.075877047999938,42.326616034000040,STREET_FEA 1390,STREET_FEA 1390,82,derived_50_100_ft,boston-sam,342088,366-378 Dudley St,Dudley St,42.32659171,-71.07557472,Dudley Street & Dunmore Street,227,nearest_address
1409,17IH48,Hazelwood St,42 Hazelwood St,IS,,1709740196,,,MANUAL,,,,,BWSC,SERVICE_AR=SH; CROSS_STRE=3907; METERED_FL=U; PLACEMENT=MIGRATED,17IH48,,,MU,MUCENT,1992,,,,1,,1177632000000,palaciolv,1231459200000,{3D329E97-939F-5942-8040-FA7C5CD09259},-71.084452799999951,42.317727437000030,32 (STREET_FEA 2093),STREET_FEA 2093,32,derived_0_50_ft,boston-sam,72297,42 Hazelwood St,Hazelwood St,42.31767866,-71.08455060,Hazelwood Street & Silva Place,27,nearest_address
1415,20IH191,Ruggles Street,Near Ruggles Street & Tremont Street,IS,,2009740268,,,U,,,,,BWSC,SERVICE_AR=SL; CROSS_STRE=3711; METERED_FL=U; PLACEMENT=BlundoNR,20IH191,,,MU,MUCENT,2000,,,,1,,1298937600000,BlundoNR,1298937600000,{8CF33FAB-9599-571E-B86C-B2E5CA47B995},-71.089864205999959,42.334421884000051,1199 (STREET_FEA 4216),STREET_FEA 4216,282,intersection_preferred_150_plus_ft,boston-sam,156712,1 Schroeder Plz,Schroeder Plz,42.33413626,-71.09083907,Ruggles Street & Tremont Street,105,nearest_intersection
1417,19IH124,Zeigler St,78 Zeigler St,IS,,1909740153,,,MANUAL,,,,,BWSC,SERVICE_AR=SL; CROSS_STRE=4577; METERED_FL=U; PLACEMENT=MIGRATED,19IH124,,,MU,MUCENT,1993,,,,1,,1177632000000,mulline,1231459200000,{1943C2DB-DA66-53F7-8421-69386C7D6853},-71.081674053999961,42.329165148000072,69 (STREET_FEA 4662),STREET_FEA 4662,57,derived_50_100_ft,boston-sam,350561,78 Zeigler St,Zeigler St,42.32931835,-71.08162435,Degautier Way & Zeigler Street,42,nearest_address
1419,19IH162,Zeigler St,103-105 Zeigler St,IS,,1909740159,,,MANUAL,,,,,BWSC,SERVICE_AR=SL; CROSS_STRE=5056; METERED_FL=U; PLACEMENT=MIGRATED,19IH162,,,KE,KEK81-A,1982,,,,1,,1177632000000,mulline,1231459200000,{8CE0435E-E97F-5FF0-B46E-8E6EBF07885A},-71.080622714999947,42.329053173000034,107 (STREET_FEA 4662),STREET_FEA 4662,28,derived_0_50_ft,boston-sam,341560,103-105 Zeigler St,Zeigler St,42.32898211,-71.08058160,Bethune Way & Zeigler Street,60,nearest_address
1423,17IH84,Hazelwood Street,Near Hazelwood Street & Silva Place,IS,,1709740160,,,GIS,,,,,BWSC,SERVICE_AR=SH; CROSS_STRE=4385; METERED_FL=U; PLACEMENT=MIGRATED,17IH84,,,KE,KEK81-A,1994,,,,1,,1177632000000,blundonr,1255478400000,{B716280C-EF01-5070-B9A5-5A455F65F88D},-71.084280395999940,42.318464437000046,STREET_FEA 2729,STREET_FEA 2729,172,intersection_preferred_150_plus_ft,boston-sam,343566,38-40 Humboldt Ct,Humboldt Ct,42.31850504,-71.08491855,Hazelwood Street & Silva Place,256,nearest_intersection
1428,20IH100,Hammond St,34 Hammond St,IS,,2009740155,,,MANUAL,,,,,BWSC,SERVICE_AR=SL; CROSS_STRE=6283; METERED_FL=U; PLACEMENT=MIGRATED,20IH100,,,MU,MUCENT,1993,,,,1,,1177632000000,connorsm,1225152000000,{69299937-0415-5154-949F-5F3A2B8E1C30},-71.082588208999937,42.335199778000060,34 (STREET_FEA 1993),STREET_FEA 1993,48,derived_0_50_ft,boston-sam,165930,34 Hammond St,Hammond St,42.33507389,-71.08263530,Greenwich Street & Westminster Street,166,nearest_address
1431,19JH100,Randall St,34 Randall St,IS,694224000000,1910740037,,,MANUAL,,,,,BWSC,SERVICE_AR=SH; CROSS_STRE=3513; METERED_FL=U; PLACEMENT=MIGRATED,19JH100,,,MU,MUCENT,2000,,,,1,,1177632000000,blundonr,1255478400000,{75701F8C-3DE4-5D4B-AE5F-63103757E279},-71.076763425999957,42.332497836000073,STREET_FEA 1631,STREET_FEA 1631,94,derived_50_100_ft,boston-sam,352861,34 Randall St,Randall St,42.33228280,-71.07657026,Fellows Street & Randall Street,73,nearest_address
1432,20IH12,Ruggles Street,Near Ruggles Street & Tremont Street,IS,,2009740213,,,GPS,,,,,BWSC,SERVICE_AR=SL; CROSS_STRE=4514; METERED_FL=U; PLACEMENT=MIGRATED,20IH12,,,MU,MUCENT,1996,,,,1,,1177632000000,mulline,1231891200000,{2DB6528C-0019-54B1-BC1F-C00B7EBFF812},-71.090354005999984,42.333847575000050,1199 OPP (STREET_FEA 4216),STREET_FEA 4216,168,intersection_preferred_150_plus_ft,boston-sam,156712,1 Schroeder Plz,Schroeder Plz,42.33413626,-71.09083907,Ruggles Street & Tremont Street,329,nearest_intersection
1443,15IH28,Maple St,108 Maple St,IS,,1509740130,,,GIS,,,,,BWSC,SERVICE_AR=SH; CROSS_STRE=3010; METERED_FL=U; PLACEMENT=MIGRATED,15IH28,,,DA,ADB-84-B,1990,,,,1,,1177632000000,blundonr,1255478400000,{239937B2-71C7-501D-BAF7-A413C7764E50},-71.086793633999946,42.307393778000062,106 (STREET_FEA 2687),STREET_FEA 2687,42,derived_0_50_ft,boston-sam,89258,108 Maple St,Maple St,42.30727866,-71.08677060,Maple Street & Nazing Street,108,nearest_address
1455,17JH24,Hartford St,21 Hartford St,IS,,1710740198,,,MANUAL,,,,,BWSC,SERVICE_AR=SH; CROSS_STRE=3630; METERED_FL=U; PLACEMENT=MIGRATED,17JH24,,,DA,ADB-84-B,2000,,,,1,,1177632000000,palaciolv,1231718400000,{BB588426-746B-557D-9704-02B2FC3EFF38},-71.073080993999952,42.316990528000076,21 (STREET_FEA 2038),STREET_FEA 2038,44,derived_0_50_ft,boston-sam,70209,21 Hartford St,Hartford St,42.31691866,-71.07321059,Hartford Street & Robin Hood Street,25,nearest_address
1458,17JH136,W Cottage St,29 W Cottage St,IS,,1710740050,,,MANUAL,,,,,BWSC,SERVICE_AR=SL; CROSS_STRE=78; METERED_FL=U; PLACEMENT=MIGRATED,17JH136,,,MU,MUCENT,1991,,,,1,,1177632000000,palaciolv,1231718400000,{A96A462D-9AB4-5D37-B80A-110457177B7B},-71.074008272999947,42.320898323000051,55 OPP (STREET_FEA 689),STREET_FEA 689,24,derived_0_50_ft,boston-sam,43683,29 W Cottage St,W Cottage St,42.32092867,-71.07393059,Brook Avenue & West Cottage Street,53,nearest_address
1484,17JH32,Danube St,8 Danube St,IS,,1710740164,,,GPS,,,,,BWSC,SERVICE_AR=SH; CROSS_STRE=694; METERED_FL=U; PLACEMENT=MIGRATED,17JH32,,,DA,ADB-84-B,1990,,,,1,,1177632000000,palaciolv,1231718400000,{AF677DB8-E20B-5EEF-81C9-F12925A53B2D},-71.075340994999976,42.317965095000034,8 OPP (STREET_FEA 1260),STREET_FEA 1260,68,derived_50_100_ft,boston-sam,46217,8 Danube St,Danube St,42.31790866,-71.07510059,Brookford Street & Danube Street,140,nearest_address
1494,20JH78,Massachusetts Ave,665-667 Massachusetts Ave,IS,,2010740171,,,MANUAL,,,,,BWSC,SERVICE_AR=SL; CROSS_STRE=4759; METERED_FL=U; PLACEMENT=MIGRATED,20JH78,,,MU,MUCENT,1992,,,,1,,1177632000000,chalmersh,1225152000000,{63047B76-9CFA-5AAD-AD38-6D57E56E7374},-71.076417068999945,42.335862627000040,665 (STREET_FEA 2746),STREET_FEA 2746,24,derived_0_50_ft,boston-sam,347875,665-667 Massachusetts Ave,Massachusetts Ave,42.33580264,-71.07645598,Massachusetts Avenue & Parmelee Street,73,nearest_address
1513,18IH56,Circuit St,31-45 Circuit St,IS,1155513600000,1809740216,,,GIS,,,,,BWSC,SERVICE_AR=SH; CROSS_STRE=3548; METERED_FL=U; PLACEMENT=MIGRATED,18IH56,,,MU,MUCENT,2005,,,,1,,1177632000000,blundonr,1230076800000,{4894C051-149C-5067-A0D7-4A2968B66B3D},-71.086426379999978,42.323594796000066,40 OPP (STREET_FEA 995),STREET_FEA 995,102,derived_100_150_ft,boston-sam,346685,31-45 Circuit St,Circuit St,42.32365207,-71.08605528,Circuit Square & Circuit Street,58,nearest_address
1532,20IH67,Columbus Ave,840 Columbus Ave,IS,1117584000000,2009740102,,,GIS,,,,,BWSC,SERVICE_AR=SL; CROSS_STRE=2806; METERED_FL=U; PLACEMENT=MIGRATED,20IH67,,,MU,MUCENT,2005,,,,1,,1177632000000,blundonr,1224460800000,{684E4BCF-F4CA-53B5-8853-5BB4F17A2B06},-71.087878228999955,42.336164829000040,STREET_FEA 1077,STREET_FEA 1077,115,derived_100_150_ft,boston-sam,437272,840 Columbus Ave,Columbus Ave,42.33585706,-71.08777715,Columbus Avenue & Melnea Cass Boulevard,101,nearest_address
1533,19JH158,Albany St,801-805 Albany St,IS,1196726400000,1910740274,,,MANUAL,,,,,BWSC,SERVICE_AR=SH; CROSS_STRE=3095; METERED_FL=U; PLACEMENT=MIGRATED,19JH158,,,KE,KEK81-A,2007,,,,1,,1177632000000,BlundoNR,1302566400000,{82097911-4028-55FB-A3C1-231230D4E1D7},-71.074864735999938,42.332581603000051,801-805 (STREET_FEA 160),STREET_FEA 160,63,derived_50_100_ft,boston-sam,1573,801-805 Albany St,Albany St,42.33274867,-71.07481059,Albany Street & Northampton Street,163,nearest_address
1536,16JH215,Dacia St,16H Dacia St,IS,1415577600000,1610740225,,,U,,,,,PRIV,SERVICE_AR=SH; CROSS_STRE=1237; METERED_FL=U; PLACEMENT=digiornom,16JH215,,,U,U,,,,,1,,1440028800000,digiornom,1440028800000,{490E8281-BAE2-5D6F-A18E-CFF9DE208286},-71.078078827999946,42.314536405000069,278 (STREET_FEA 3493),STREET_FEA 3493,62,derived_50_100_ft,boston-sam,347459,16H Dacia St,Dacia St,42.31459385,-71.07786059,Dacia Street & Wayland Street,152,nearest_address
1558,16IH4,Park View St,17-19 Park View St,IS,,1609740188,,,MANUAL,,,,,BWSC,SERVICE_AR=SH; CROSS_STRE=2247; METERED_FL=U; PLACEMENT=MIGRATED,16IH4,,,MU,MUCENT,1976,,,,1,,1177632000000,connorsm,1237766400000,{868FB49E-BB10-5A0B-A016-A2CD55E6B7D5},-71.092388899999946,42.311160119000078,17 (STREET_FEA 3221),STREET_FEA 3221,44,derived_0_50_ft,boston-sam,107725,17-19 Park View St,Park View St,42.31116866,-71.09255060,Hutchings Street & Park View Street,195,nearest_address
1567,20IH195,Warwick St,48 Warwick St,IS,,2009740272,,,U,,,,,BWSC,SERVICE_AR=SL; CROSS_STRE=4571; METERED_FL=U; PLACEMENT=BlundoNR,20IH195,,,MH,MH929,1974,,,,1,,1348012800000,BlundoNR,1348012800000,{BEBF9E5D-0346-505E-AB2E-A097E6B57492},-71.084825913999964,42.335548942000059,48 (STREET_FEA 4388),STREET_FEA 4388,44,derived_0_50_ft,boston-sam,171014,48 Warwick St,Warwick St,42.33550044,-71.08467417,Warwick Street & Windsor Street,40,nearest_address
1580,18JH88,Longmeadow St,8 Longmeadow St,IS,473385600000,1810740235,,,MANUAL,,,,,BWSC,SERVICE_AR=SL; CROSS_STRE=1039; METERED_FL=U; PLACEMENT=MIGRATED,18JH88,,,US,USMET250,2001,,,,1,,1177632000000,mulline,1231372800000,{D88EB4A0-FEAE-5670-B7DC-CA7C7DC670B8},-71.069796631999964,42.322087728000042,8 (STREET_FEA 2594),STREET_FEA 2594,33,derived_0_50_ft,boston-sam,87158,8 Longmeadow St,Longmeadow St,42.32217867,-71.06981059,Clifton Street & Longmeadow Street,143,nearest_address
1603,20IH70,Saint Cyprians Pl,24 Saint Cyprians Pl,IS,,2009740082,,,MANUAL,,,,,BWSC,SERVICE_AR=SL; CROSS_STRE=3749; METERED_FL=U; PLACEMENT=MIGRATED,20IH70,,,MU,MUCENT,1992,,,,1,,1177632000000,blundonr,1255478400000,{F98EE51B-8E69-5580-A3B1-7C00CE544119},-71.087418549999938,42.336705072000029,STREET_FEA 1077,STREET_FEA 1077,109,derived_100_150_ft,boston-sam,121007,24 Saint Cyprians Pl,Saint Cyprians Pl,42.33650867,-71.08711060,Columbus Avenue & Saint Cyprians Place,72,nearest_address
1623,17JH2,Maywood St,72 Maywood St,IS,,1710740204,,,MANUAL,,,,,BWSC,SERVICE_AR=SH; CROSS_STRE=5668; METERED_FL=U; PLACEMENT=MIGRATED,17JH2,,,US,USSEN,1981,,,,1,,1177632000000,blundonr,1255478400000,{1160BC8D-E75A-5226-9D05-E6C6A962D7E1},-71.079682683999977,42.316879236000034,66-72 (STREET_FEA 2775),STREET_FEA 2775,42,derived_0_50_ft,boston-sam,93368,72 Maywood St,Maywood St,42.31698866,-71.07963059,Savin Street & Tupelo Street,400,nearest_address
1626,20IH68,Raynor Cir,48 Raynor Cir,IS,,2009740153,,,MANUAL,,,,,BWSC,SERVICE_AR=SL; CROSS_STRE=2806; METERED_FL=U; PLACEMENT=MIGRATED,20IH68,,,KE,KEK81-A,2007,,,,1,,1177632000000,blundonr,1255478400000,{82950BE6-61A6-563D-8DC3-05BF4A4D2B29},-71.086811476999969,42.335288887000047,STREET_FEA 4217,STREET_FEA 4217,149,derived_100_150_ft,boston-sam,459932,48 Raynor Cir,Raynor Cir,42.33519137,-71.08734862,Melnea Cass Boulevard & Tremont Street,159,nearest_address
1648,18IH186,Winthrop St,33 Winthrop St,IS,,1809740048,,,GIS,,,,,BWSC,SERVICE_AR=SH; CROSS_STRE=1033; METERED_FL=U; PLACEMENT=MIGRATED,18IH186,,,DA,ADB-62-B,1990,,,,1,,1177632000000,blundonr,1255478400000,{F8915623-4C6D-5AFE-821A-AF5C015A6617},-71.081150304999937,42.326131799000052,33 (STREET_FEA 4586),STREET_FEA 4586,38,derived_0_50_ft,boston-sam,151031,33 Winthrop St,Winthrop St,42.32602867,-71.08114060,Cleveland Park & Cleveland Street,203,nearest_address
1650,19IH186,Shawmut Ave,735 Shawmut Ave,IS,1400025600000,1909740016,,,MANUAL,,,,,BWSC,SERVICE_AR=SL; CROSS_STRE=3710; METERED_FL=U; PLACEMENT=MIGRATED,19IH186,,,DA,KEK81-A,2013,,,,1,,1177632000000,mulline,1431907200000,{4915B0CC-AAF6-5BEF-A99D-DCA7863075C3},-71.083772596999950,42.332470303000036,739 (STREET_FEA 3867),STREET_FEA 3867,97,derived_50_100_ft,boston-sam,437992,735 Shawmut Ave,Shawmut Ave,42.33272337,-71.08387980,Ruggles Street & Shawmut Avenue,171,nearest_address
1652,18IH146,Warren St,202 Warren St,IS,1181606400000,1809740131,,,MANUAL,,,,,BWSC,SERVICE_AR=SH; CROSS_STRE=4507; METERED_FL=U; PLACEMENT=MIGRATED,18IH146,,,DA,ADB-84-B,1990,,,,1,,1177632000000,chalmersh,1252368000000,{C67EFAC1-85A6-529C-AF90-5318307EC0C5},-71.082634481999946,42.324059225000042,STREET_FEA 4385,STREET_FEA 4385,69,derived_50_100_ft,boston-sam,170963,202 Warren St,Warren St,42.32394486,-71.08243107,Walnut Avenue & Warren Street,26,nearest_address
1653,19IH184,Shawmut Ave,720A-720 Shawmut Ave,IS,1400025600000,1909740001,,,MANUAL,,,,,BWSC,SERVICE_AR=SL; CROSS_STRE=4542; METERED_FL=U; PLACEMENT=MIGRATED,19IH184,,,KE,KEK81-A,2013,,,,1,,1177632000000,mulline,1431907200000,{B3B61ADB-B71B-5212-B269-6DA0D87F4ADA},-71.083318916999986,42.333020313000077,723 (STREET_FEA 3867),STREET_FEA 3867,59,derived_50_100_ft,boston-sam,169666,720A-720 Shawmut Ave,Shawmut Ave,42.33296883,-71.08311179,Shawmut Avenue & Williams Street,29,nearest_address
1668,19IH76,Dudley St,155 Dudley St,IS,1181606400000,1909740209,,,MANUAL,,,,,BWSC,SERVICE_AR=SH; CROSS_STRE=1390; METERED_FL=U; PLACEMENT=MIGRATED,19IH76,,,MU,MUCENT,2003,,,,1,,1177632000000,chalmersh,1252627200000,{8C975A82-AFD2-58A2-A12D-9AA66A40F102},-71.083336089999989,42.328212530000030,STREET_FEA 4385,STREET_FEA 4385,108,derived_100_150_ft,boston-sam,164585,155 Dudley St,Dudley St,42.32842598,-71.08305673,Harrison Avenue & Warren Street,109,nearest_address
1679,16IH114,Humboldt Ave,156-160 Humboldt Ave,IS,,1609740067,,,MANUAL,,,,,BWSC,SERVICE_AR=SH; CROSS_STRE=4409; METERED_FL=U; PLACEMENT=MIGRATED,16IH114,,,MU,MUCENT,1969,,,,1,,1177632000000,chalmersh,1240531200000,{9619A1CC-F53C-577A-9906-ADCCFA0FEA52},-71.088154732999953,42.314677758000073,160 (STREET_FEA 2229),STREET_FEA 2229,27,derived_0_50_ft,boston-sam,75966,156-160 Humboldt Ave,Humboldt Ave,42.31463866,-71.08807060,Humboldt Avenue & Waumbeck Street,53,nearest_address
1697,17HH128,Weaver Ct,12-20 Weaver Ct,IS,-220924800000,1708740038,,,MANUAL,,,,,BWSC,SERVICE_AR=SH; CROSS_STRE=4743; METERED_FL=U; PLACEMENT=MIGRATED,17HH128,,,MU,MUCENT,2002,,,,1,,1177632000000,palaciolv,1231459200000,{EDFEDFA3-296B-5171-9AD9-A81A2D0D6BBE},-71.096764417999964,42.321363684000062,STREET_FEA 4745,STREET_FEA 4745,70,derived_50_100_ft,boston-sam,352324,12-20 Weaver Ct,Weaver Ct,42.32142247,-71.09701048,Weaver Court & Weaver Way,31,nearest_address
1698,16IH138,Wabon St,18 Wabon St,IS,,1609740073,,,MANUAL,,,,,BWSC,SERVICE_AR=SH; CROSS_STRE=4328; METERED_FL=U; PLACEMENT=MIGRATED,16IH138,,,DA,ADB-84-B,1990,,,,1,,1177632000000,chalmersh,1240531200000,{A1BA7F4B-953F-5463-BE88-DA6431FA494E},-71.085739895999950,42.314463406000073,18 (STREET_FEA 4329),STREET_FEA 4329,35,derived_0_50_ft,boston-sam,141057,18 Wabon St,Wabon St,42.31436866,-71.08572060,Waumbeck Street & Wenonah Street,245,nearest_address
1700,17IH116,Harold St,21 Harold St,IS,,1709740097,,,MANUAL,,,,,BWSC,SERVICE_AR=SH; CROSS_STRE=4357; METERED_FL=U; PLACEMENT=MIGRATED,17IH116,,,KE,KEK81-A,1994,,,,1,,1177632000000,palaciolv,1231459200000,{29AE9C98-BC44-527F-827F-3758EEAD196A},-71.087991957999975,42.319838246000074,STREET_FEA 2729,STREET_FEA 2729,110,derived_100_150_ft,boston-sam,69602,21 Harold St,Harold St,42.31956866,-71.08818060,Martin Luther King Jr Boulevard & Walnut Avenue,130,nearest_address
1718,18IH84,Dorr St,22 Dorr St,IS,,1809740009,,,MANUAL,,,,,BWSC,SERVICE_AR=SH; CROSS_STRE=2143; METERED_FL=U; PLACEMENT=MIGRATED,18IH84,,,US,USMET250,1986,,,,1,,1177632000000,blundonr,1255478400000,{610B0048-C891-5707-98F8-373F8C4E3C4C},-71.091559978999953,42.327330570000072,21 OPP (STREET_FEA 1363),STREET_FEA 1363,39,derived_0_50_ft,boston-sam,49156,22 Dorr St,Dorr St,42.32741551,-71.09147460,Dorr Street & Highland Street,293,nearest_address
1731,18IH22,Washington St,2691 Washington St,IS,473385600000,1809740168,,,GIS,,,,,BWSC,SERVICE_AR=SH; CROSS_STRE=3129; METERED_FL=U; PLACEMENT=MIGRATED,18IH22,,,KE,KEK81-A,2011,,,,1,,1177632000000,blundonr,1255478400000,{7A7B85D4-1AAA-5630-A3F5-99372944194B},-71.089775635999956,42.323470939000060,2693 (STREET_FEA 4398),STREET_FEA 4398,59,derived_50_100_ft,boston-sam,373511,2691 Washington St,Washington St,42.32360867,-71.08966060,Dale Street & Oakland Street,55,nearest_address
1743,18JH8,Copeland Park,1-3 Copeland Park,IS,,1810740245,,,MANUAL,,,,,BWSC,SERVICE_AR=SH; CROSS_STRE=1125; METERED_FL=U; PLACEMENT=MIGRATED,18JH8,,,MH,MH129,1980,,,,1,,1177632000000,blundonr,1255478400000,{C8134585-AEA9-5745-BF2B-16703D6CC40C},-71.079211853999936,42.322786689000054,3 OPP (STREET_FEA 1123),STREET_FEA 1123,41,derived_0_50_ft,boston-sam,439722,1-3 Copeland Park,Copeland Park,42.32272620,-71.07934020,Copeland Park & Copeland Street,134,nearest_address
1772,15IH70,Hutchings St,37 Hutchings St,IS,1180656000000,1509740035,,,MANUAL,,,,,BWSC,SERVICE_AR=SH; CROSS_STRE=1502; METERED_FL=U; PLACEMENT=MIGRATED,15IH70,,,DA,ADB-84-B,1990,,,,1,,1177632000000,blundonr,1244505600000,{DA9DC3A9-09CC-5533-A3BF-F2B2B20EADF8},-71.089268077999975,42.310301526000046,37 (STREET_FEA 2247),STREET_FEA 2247,67,derived_50_100_ft,boston-sam,76908,37 Hutchings St,Hutchings St,42.31037866,-71.08904060,Homestead Street & Pleasanton Street,359,nearest_address
1791,16JH78,Dove St,8 Dove St,IS,972604800000,1610740043,,,MANUAL,,,,,BWSC,SERVICE_AR=SH; CROSS_STRE=1367; METERED_FL=U; PLACEMENT=MIGRATED,16JH78,,,KE,KEK81-A,1998,,,,1,,1177632000000,blundonr,1244505600000,{8F880E73-70B2-58DB-82CF-CEA402293D9B},-71.077713076999942,42.315427242000055,8 (STREET_FEA 1368),STREET_FEA 1368,36,derived_0_50_ft,boston-sam,49237,8 Dove St,Dove St,42.31551866,-71.07766059,Dove Court & Dove Street,20,nearest_address
1793,19IH210,Eustis St,53-65 Eustis St,IS,1001548800000,1909740246,,,MANUAL,,,,,PRIV,SERVICE_AR=SL; CROSS_STRE=1564; METERED_FL=U; PLACEMENT=MIGRATED,19IH210,,,KE,KEK81-A,1998,,,,1,,1177632000000,connorsm,1282262400000,{CA8E83B4-8BBE-5D0D-8017-03A17450652D},-71.080348879999974,42.330143622000037,STREET_FEA 5051,STREET_FEA 5051,30,derived_0_50_ft,boston-sam,419632,53-65 Eustis St,Eustis St,42.33019555,-71.08026240,Bethune Way & Eustis Street,121,nearest_address
1806,19IH48,Kenilworth St,15 Kenilworth St,IS,,1909740173,,,MANUAL,,,,,BWSC,SERVICE_AR=SH; CROSS_STRE=1390; METERED_FL=U; PLACEMENT=MIGRATED,19IH48,,,WA,WAWB67P,1980,,,,1,,1177632000000,mulline,1231459200000,{4A471F7D-9ED1-56BE-B4A9-64E2D4FFCF1F},-71.087569621999933,42.328761192000059,15 (STREET_FEA 2371),STREET_FEA 2371,35,derived_0_50_ft,boston-sam,81068,15 Kenilworth St,Kenilworth St,42.32885867,-71.08757060,Dudley Place & Dudley Street,210,nearest_address
1809,16IH174,Quincy St,61 Quincy St,IS,,1609740048,,,MANUAL,,,,,BWSC,SERVICE_AR=SH; CROSS_STRE=568; METERED_FL=U; PLACEMENT=MIGRATED,16IH174,,,DA,ADB-84-B,1990,,,,1,,1177632000000,chalmersh,1240531200000,{16793C45-2356-52D9-BA38-9378EE4906EE},-71.079915035999989,42.315111649000073,61 (STREET_FEA 3493),STREET_FEA 3493,77,derived_50_100_ft,boston-sam,114134,61 Quincy St,Quincy St,42.31490866,-71.08000059,Holborn Street & Kalada Park,330,nearest_address
1823,16HH146,Hutchings St,125-135 Hutchings St,IS,,1608740184,,,GIS,,,,,BWSC,SERVICE_AR=SH; CROSS_STRE=2023; METERED_FL=U; PLACEMENT=MIGRATED,16HH146,,,MH,MH129,1979,,,,1,,1177632000000,blundonr,1255478400000,{D1704997-CBA5-5F65-8B7C-7964CC0774C8},-71.092898878999961,42.312130451000030,127-133 (STREET_FEA 2247),STREET_FEA 2247,49,derived_0_50_ft,boston-sam,350965,125-135 Hutchings St,Hutchings St,42.31218398,-71.09273363,Harold Street & Hutchings Street,89,nearest_address
1826,18HH112,Valentine St,28 Valentine St,IS,,1808740185,,,GIS,,,,,BWSC,SERVICE_AR=SH; CROSS_STRE=4271; METERED_FL=U; PLACEMENT=MIGRATED,18HH112,,,MU,MUCENT,1992,,,,1,,1177632000000,blundonr,1255478400000,{BECD9A1E-AB7E-52AB-8859-3F63D8600F29},-71.093034846999956,42.322714381000026,25-27 OPP (STREET_FEA 1758),STREET_FEA 1758,53,derived_50_100_ft,boston-sam,139699,28 Valentine St,Valentine St,42.32258073,-71.09295998,Fulda Street & Valentine Street,89,nearest_address
1857,20JH64,Massachusetts Ave,717-745 Massachusetts Ave,IS,,2010740296,,,MANUAL,,,,,BWSC,SERVICE_AR=SL; CROSS_STRE=160; METERED_FL=U; PLACEMENT=MIGRATED,20JH64,,,KE,KEK81-A,1994,,,,1,,1177632000000,chalmersh,1225152000000,{6E7C8613-7882-5BFD-A833-F9E344C7B3DA},-71.074161088999972,42.334016575000078,735 (STREET_FEA 2746),STREET_FEA 2746,111,derived_100_150_ft,boston-sam,92655,717-745 Massachusetts Ave,Massachusetts Ave,42.33418954,-71.07450091,Albany Street & Massachusetts Avenue,260,nearest_address
1865,18IH120,Fountain St,25 Fountain St,IS,,1809740115,,,MANUAL,,,,,BWSC,SERVICE_AR=SH; CROSS_STRE=1236; METERED_FL=U; PLACEMENT=MIGRATED,18IH120,,,MH,MH929,1988,,,,1,,1177632000000,blundonr,1255478400000,{279E525B-21C2-52BB-BA35-8B039AD7F44A},-71.084901856999977,42.324389245000077,STREET_FEA 1710,STREET_FEA 1710,65,derived_50_100_ft,boston-sam,437923,25 Fountain St,Fountain St,42.32422952,-71.08501115,Dabney Street & Fountain Street,103,nearest_address
1892,17JH118,Woodward Park St,14 Woodward Park St,IS,757382400000,1710740141,,,MANUAL,,,,,BWSC,SERVICE_AR=SH; CROSS_STRE=1685; METERED_FL=U; PLACEMENT=MIGRATED,17JH118,,,MU,MUCENT,1993,,,,1,,1177632000000,blundonr,1244505600000,{9A027C8F-65EA-553B-A997-D5A6687F248D},-71.072667641999942,42.318528480000055,8 (STREET_FEA 4631),STREET_FEA 4631,36,derived_0_50_ft,boston-sam,152096,14 Woodward Park St,Woodward Park St,42.31850867,-71.07280059,Folsom Street & Woodward Park Street,188,nearest_address
1901,20IH138,Lenox St,136 Lenox St,IS,738892800000,2009740054,,,MANUAL,,,,,BWSC,SERVICE_AR=SL; CROSS_STRE=2507; METERED_FL=U; PLACEMENT=MIGRATED,20IH138,,,MU,MUCENT,2003,,,,1,,1177632000000,blundonr,1244505600000,{7AE73F39-3915-530C-9195-E1453ECCCD25},-71.082772046999935,42.337204518000078,119-121 (STREET_FEA 2370),STREET_FEA 2370,68,derived_50_100_ft,boston-sam,350484,136 Lenox St,Lenox St,42.33737071,-71.08266002,Ditmus Court & Kendall Street,42,nearest_address
1903,15IH58,Schuyler St,14 Schuyler St,IS,,1509740112,,,MANUAL,,,,,BWSC,SERVICE_AR=SH; CROSS_STRE=568; METERED_FL=U; PLACEMENT=MIGRATED,15IH58,,,DA,ADB-84-B,1990,,,,1,,1177632000000,chalmersh,1233532800000,{FBCE82E0-F85B-50F7-932A-748D6C735B53},-71.084904578999954,42.307961259000081,10-12 (STREET_FEA 3825),STREET_FEA 3825,43,derived_0_50_ft,boston-sam,123955,14 Schuyler St,Schuyler St,42.30793697,-71.08506067,Hartwell Street & Schuyler Street,106,nearest_address
1944,17JH12,Edgewood St,72 Edgewood St,IS,,1710740182,,,MANUAL,,,,,BWSC,SERVICE_AR=SH; CROSS_STRE=568; METERED_FL=U; PLACEMENT=MIGRATED,17JH12,,,MU,MUCENT,1992,,,,1,,1177632000000,blundonr,1255478400000,{8E74D0B3-84E4-58F1-B5F2-F376B7CB01BC},-71.078749377999941,42.317558347000045,72 (STREET_FEA 1451),STREET_FEA 1451,46,derived_0_50_ft,boston-sam,51247,72 Edgewood St,Edgewood St,42.31767866,-71.07870060,Blue Hill Avenue & Ingleside Street,213,nearest_address
1953,18JH68,Dudley St,438 Dudley St,IS,,1810740148,,,GIS,,,,,BWSC,SERVICE_AR=SL; CROSS_STRE=1007; METERED_FL=U; PLACEMENT=MIGRATED,18JH68,,,MU,MUCENT,2003,,,,1,,1177632000000,blundonr,1255478400000,{09DE0FBD-63F7-53DA-9DDA-3DBC81166EF1},-71.074094714999944,42.324193167000033,438-442 (STREET_FEA 1390),STREET_FEA 1390,30,derived_0_50_ft,boston-sam,158166,438 Dudley St,Dudley St,42.32416883,-71.07398928,Dudley Street & Lewis Place,44,nearest_address
1971,18JH38,Blue Hill Ave,35 Blue Hill Ave,IS,,1810740154,,,MANUAL,,,,,BWSC,SERVICE_AR=SH; CROSS_STRE=2224; METERED_FL=U; PLACEMENT=MIGRATED,18JH38,,,KE,KEK81,2000,,,,1,,1177632000000,blundonr,1244505600000,{90B831C9-6A27-503D-8054-9B34C98FCBF4},-71.075830002999965,42.324004492000029,34 (STREET_FEA 568),STREET_FEA 568,67,derived_50_100_ft,boston-sam,16421,35 Blue Hill Ave,Blue Hill Ave,42.32404867,-71.07607059,Blue Hill Avenue & Huckins Street,41,nearest_address
2006,19IH152,Dewitt Dr,113-123 Dewitt Dr,IS,,1909740012,,,GPS,,,,,BWSC,SERVICE_AR=SL; CROSS_STRE=1332; METERED_FL=U; PLACEMENT=MIGRATED,19IH152,,,KE,KEK81-A,2000,,,,1,,1177632000000,mulline,1231459200000,{40467F75-2711-5232-A6EC-237641ECA842},-71.085082025999952,42.332834254000034,51 (STREET_FEA 3710),STREET_FEA 3710,88,derived_50_100_ft,boston-sam,343455,113-123 Dewitt Dr,Dewitt Dr,42.33307700,-71.08508143,Dewitt Drive & Ruggles Street,44,nearest_address
2029,15IH32,Blue Hill Ave,545-549 Blue Hill Ave,IS,,1509740145,,,GIS,,,,,BWSC,SERVICE_AR=SH; CROSS_STRE=4416; METERED_FL=U; PLACEMENT=MIGRATED,15IH32,,,DA,ADB-84-B,1990,,,,1,,1177632000000,blundonr,1255478400000,{5290E07B-4D2A-5999-8AB2-53DEF58153C8},-71.084577755999987,42.306808394000029,545 (STREET_FEA 568),STREET_FEA 568,83,derived_50_100_ft,boston-sam,162151,545-549 Blue Hill Ave,Blue Hill Ave,42.30659896,-71.08470201,Blue Hill Avenue & Nazing Street,252,nearest_address
2061,19JH187,Massachusetts Ave,797-807 Massachusetts Ave,IS,,1910740284,,,MANUAL,,,,,BWSC,SERVICE_AR=SH; CROSS_STRE=2806; METERED_FL=U; PLACEMENT=mulline,19JH187,,,MU,MUCENT,2002,,,,1,,1229299200000,blundonr,1264377600000,{8FDD01C3-8C2C-55F4-8FA6-4FA69F160389},-71.072993380999947,42.332997470000066,811 (STREET_FEA 2746),STREET_FEA 2746,68,derived_50_100_ft,boston-sam,172613,797-807 Massachusetts Ave,Massachusetts Ave,42.33305335,-71.07323496,Albany Street & Massachusetts Avenue,229,nearest_address
2065,17HH152,Washington St,2837-2839 Washington St,IS,757382400000,1708740054,,,MANUAL,,,,,BWSC,SERVICE_AR=SH; CROSS_STRE=4398; METERED_FL=U; PLACEMENT=MIGRATED,17HH152,,,KE,KEK81-A,1994,,,,1,,1177632000000,palaciolv,1231459200000,{6A162623-1AAB-5843-AC80-495B984882BD},-71.093230376999941,42.320932104000065,STREET_FEA 2693,STREET_FEA 2693,62,derived_50_100_ft,boston-sam,144567,2837-2839 Washington St,Washington St,42.32106965,-71.09309414,Brinton Street & Marcella Street,53,nearest_address
2072,17JH292,Maywood St,102 Maywood St,IS,,1710740239,,,U,,,,,PRIV,SERVICE_AR=SH; CROSS_STRE=0; METERED_FL=U; PLACEMENT=mulline,17JH292,,,U,KEK81-A,2010,,,,1,,1297036800000,BlundoNR,1297123200000,{1981CC0E-7A21-59A6-A08C-74ED2ED4A9EF},-71.078570803999980,42.316668016000051,233 (STREET_FEA 568),STREET_FEA 568,119,derived_100_150_ft,boston-sam,93321,102 Maywood St,Maywood St,42.31640866,-71.07884060,Blue Hill Avenue & Dewey Street,160,nearest_address
2092,18JH182,Norfolk Ave,166 Norfolk Ave,IS,599616000000,1810740105,,,GIS,,,,,BWSC,SERVICE_AR=SL; CROSS_STRE=3894; METERED_FL=U; PLACEMENT=MIGRATED,18JH182,,,WA,WAWB67P,1988,,,,1,,1177632000000,blundonr,1255478400000,{BC698764-0664-5F0B-A8F1-FEC2A79C271C},-71.069079941999973,42.325152319000040,166 (STREET_FEA 3082),STREET_FEA 3082,18,derived_0_50_ft,boston-sam,103097,166 Norfolk Ave,Norfolk Ave,42.32519867,-71.06910059,Norfolk Avenue & Shirley Street,46,nearest_address
2107,17HH122,Academy Ter,72-78 Academy Ter,IS,725846400000,1708740042,,,GIS,,,,,BWSC,SERVICE_AR=SH; CROSS_STRE=118; METERED_FL=U; PLACEMENT=MIGRATED,17HH122,,,MU,MUCENT,1992,,,,1,,1177632000000,blundonr,1255478400000,{78DEA46F-5F5C-53E2-8283-316AF0CD1A14},-71.097245288999943,42.321030844000063,84 (STREET_FEA 4742),STREET_FEA 4742,38,derived_0_50_ft,boston-sam,343143,72-78 Academy Ter,Academy Ter,42.32112579,-71.09730512,Weaver Court & Weaver Way,148,nearest_address
2128,16IH78,Brunswick St,48-50 Brunswick St,IS,1181606400000,1609740155,,,MANUAL,,,,,BWSC,SERVICE_AR=SH; CROSS_STRE=2271; METERED_FL=U; PLACEMENT=MIGRATED,16IH78,,,MU,MUCENT,2002,,,,1,,1177632000000,chalmersh,1251072000000,{5745B9E7-DCCD-52D5-90C8-3814DAAB4B45},-71.082837845999961,42.311980433000031,572A (STREET_FEA 4385),STREET_FEA 4385,56,derived_50_100_ft,boston-sam,22884,48-50 Brunswick St,Brunswick St,42.31197866,-71.08263060,Brunswick Street & Warren Street,45,nearest_address
2129,16HH145,Seaver St,68 Seaver St,IS,,1608740211,,,MANUAL,,,,,BWSC,SERVICE_AR=SH; CROSS_STRE=3221; METERED_FL=U; PLACEMENT=MIGRATED,16HH145,,,MU,MUCENT,1976,,,,1,,1177632000000,connorsm,1237766400000,{0509B7A0-74C9-541E-9BB1-F64EE3831415},-71.093178659999978,42.311326652000048,72-74 (STREET_FEA 3838),STREET_FEA 3838,55,derived_50_100_ft,boston-sam,124222,68 Seaver St,Seaver St,42.31143866,-71.09304060,Park View Street & Seaver Street,272,nearest_address
2155,18IH118,Dabney St,70 Dabney St,IS,,1809740123,,,MANUAL,,,,,BWSC,SERVICE_AR=SH; CROSS_STRE=1710; METERED_FL=U; PLACEMENT=MIGRATED,18IH118,,,KE,KEK81-A,1994,,,,1,,1177632000000,palaciolv,1231804800000,{D7D4C6CF-88EA-5A4F-B9F4-4640EADD5E9E},-71.083910932999970,42.324397048000037,39 (STREET_FEA 1236),STREET_FEA 1236,79,derived_50_100_ft,boston-sam,355940,70 Dabney St,Dabney St,42.32431981,-71.08363475,Circuit Street & Walnut Avenue,193,nearest_address
2168,19JH36,Hampden St,140-150 Hampden St,IS,,1910740233,,,MANUAL,,,,,BWSC,SERVICE_AR=SL; CROSS_STRE=2214; METERED_FL=U; PLACEMENT=MIGRATED,19JH36,,,DA,ADB-84-B,1990,,,,1,,1177632000000,mulline,1231718400000,{024E0FC3-2D24-5DA0-9251-BF773DBF2D2E},-71.075031802999945,42.328190872000050,140 (STREET_FEA 1994),STREET_FEA 1994,57,derived_50_100_ft,boston-sam,155240,140-150 Hampden St,Hampden St,42.32810867,-71.07485059,Dubois Street & Hampden Street,45,nearest_address
2176,18JH158,Robey St,16-18 Robey St,IS,1060560000000,1810740225,,,GIS,,,,,BWSC,SERVICE_AR=SL; CROSS_STRE=8; METERED_FL=U; PLACEMENT=MIGRATED,18JH158,,,MU,MUCENT,2002,,,,1,,1177632000000,blundonr,1255478400000,{7BBDB4F2-9190-5BCD-A2DB-09EAD5131A16},-71.068256317999953,42.322387898000045,16-18 (STREET_FEA 3628),STREET_FEA 3628,30,derived_0_50_ft,boston-sam,117297,16-18 Robey St,Robey St,42.32242967,-71.06816059,Batchelder Street & Longmeadow Street,250,nearest_address
2181,18JH217,Huckins St,18-20 Huckins St,IS,,1810740251,,,MANUAL,,,,,BWSC,SERVICE_AR=SL; CROSS_STRE=1313; METERED_FL=U; PLACEMENT=denapolipd,18JH217,,,US,USMET250,2000,,,,1,,1247702400000,blundonr,1249430400000,{4A92EFC0-5995-5B1F-910B-997C4CED6C87},-71.075130008999963,42.323693942000034,20 (STREET_FEA 2224),STREET_FEA 2224,35,derived_0_50_ft,boston-sam,454153,18-20 Huckins St,Huckins St,42.32378107,-71.07507540,Dennis Street & Huckins Street,214,nearest_address
2182,19IH80,Dudley St,114 Dudley St,IS,,1909740161,,,GIS,,,,,BWSC,SERVICE_AR=SL; CROSS_STRE=1390; METERED_FL=U; PLACEMENT=MIGRATED,19IH80,,,US,USMET250,1990,,,,1,,1177632000000,blundonr,1255478400000,{0755A200-370F-5947-8BA3-9980F5830331},-71.084849888999941,42.329020995000064,2380 (STREET_FEA 4398),STREET_FEA 4398,49,derived_0_50_ft,boston-sam,49631,114 Dudley St,Dudley St,42.32906367,-71.08467560,Dudley Street & Malcolm X Boulevard,74,nearest_address
2206,17JH114,Folsom St,10 Folsom St,IS,,1710740127,,,MANUAL,,,,,BWSC,SERVICE_AR=SH; CROSS_STRE=2020; METERED_FL=U; PLACEMENT=MIGRATED,17JH114,,,MU,MUCENT,1993,,,,1,,1177632000000,palaciolv,1231718400000,{8183C67D-F825-5F63-866A-57F690BA475E},-71.071289071999956,42.318867692000026,10 (STREET_FEA 1685),STREET_FEA 1685,30,derived_0_50_ft,boston-sam,59144,10 Folsom St,Folsom St,42.31881866,-71.07120059,Folsom Street & Harlow Street,25,nearest_address
2235,17IH46,Hazelwood St,16 Hazelwood St,IS,,1709740206,,,MANUAL,,,,,BWSC,SERVICE_AR=SH; CROSS_STRE=4385; METERED_FL=U; PLACEMENT=MIGRATED,17IH46,,,MU,MUCENT,1992,,,,1,,1177632000000,palaciolv,1231459200000,{FD18E97B-3640-5D67-BB70-BC3A86E59E16},-71.083348369999953,42.317453459000035,16 (STREET_FEA 2093),STREET_FEA 2093,41,derived_0_50_ft,boston-sam,72290,16 Hazelwood St,Hazelwood St,42.31735867,-71.08343060,Hazelwood Street & Warren Street,234,nearest_address
2242,17HH146,Washington St,2896-2906 Washington St,IS,,1708740060,,,GPS,,,,,BWSC,SERVICE_AR=SH; CROSS_STRE=1342; METERED_FL=U; PLACEMENT=MIGRATED,17HH146,,,MU,MUCENT,2000,,,,1,,1177632000000,palaciolv,1231459200000,{1C821ADF-88E4-552A-8F0E-A5A064BE05E5},-71.095247716999950,42.318979663000050,STREET_FEA 4398,STREET_FEA 4398,94,derived_50_100_ft,boston-sam,353977,2896-2906 Washington St,Washington St,42.31888432,-71.09492199,Dimock Street & Washington Street,58,nearest_address
2244,13HH22,Cemetery Road,Near Cemetery Road & Morton Street,IS,,1308740006,,,U,,,,,PRIV,SERVICE_AR=SH; CROSS_STRE=0; METERED_FL=U; PLACEMENT=MIGRATED,13HH22,,,U,U,,,,,1,,1177632000000,denapolipd,1252627200000,{AA188E07-DB88-5AAA-AEF5-B5C98C3F923A},-71.100519716999941,42.299808611000060,STREET_FEA 2317,STREET_FEA 2317,389,intersection_preferred_150_plus_ft,boston-sam,341854,170 Morton St,Morton St,42.29960409,-71.10193923,Cemetery Road & Morton Street,1129,nearest_intersection
2249,19IH26,John Eliot Sq,10-18 John Eliot Sq,IS,,1909740133,,,MANUAL,,,,,BWSC,SERVICE_AR=SH; CROSS_STRE=422; METERED_FL=U; PLACEMENT=MIGRATED,19IH26,,,US,USMET250,1995,,,,1,,1177632000000,mulline,1231459200000,{B9581DF7-1F08-5A10-9585-71692E894839},-71.090393803999973,42.329539378000050,20 (STREET_FEA 1390),STREET_FEA 1390,72,derived_50_100_ft,boston-sam,79850,10-18 John Eliot Sq,John Eliot Sq,42.32936367,-71.09027260,Bartlett Street & Dudley Street,52,nearest_address
2250,18HH159,Highland St,145-147 Highland St,IS,,1808740095,,,MANUAL,,,,,BWSC,SERVICE_AR=SH; CROSS_STRE=1702; METERED_FL=U; PLACEMENT=MIGRATED,18HH159,,,US,USSEN,1980,,,,1,,1177632000000,palaciolv,1231718400000,{9DA1E739-3C6D-573F-A35F-7354FF159E75},-71.093195179999952,42.324989807000065,145 OPP (STREET_FEA 2143),STREET_FEA 2143,48,derived_0_50_ft,boston-sam,73693,145-147 Highland St,Highland St,42.32501867,-71.09337060,Fort Avenue & Highland Street,44,nearest_address
2295,18HH78,Slayton Way,1-3 Slayton Way,IS,,1808740201,,,GIS,,,,,BWSC,SERVICE_AR=SH; CROSS_STRE=3601; METERED_FL=U; PLACEMENT=MIGRATED,18HH78,,,MU,MUCENT,1982,,,,1,,1177632000000,blundonr,1255478400000,{C88D4881-C422-5E90-935D-D05B9F34C561},-71.098295973999939,42.322216958000070,5 (STREET_FEA 1076),STREET_FEA 1076,47,derived_0_50_ft,boston-sam,341837,1-3 Slayton Way,Slayton Way,42.32226733,-71.09813353,Centre Street & Columbus Avenue,120,nearest_address
2301,18IH176,Moreland St,22 Moreland St,IS,757382400000,1809740064,,,MANUAL,,,,,BWSC,SERVICE_AR=SH; CROSS_STRE=1033; METERED_FL=U; PLACEMENT=MIGRATED,18IH176,,,KE,KEK81-A,1994,,,,1,,1177632000000,blundonr,1255478400000,{552137E1-7000-5126-B751-54A545333732},-71.081938531999981,42.325713399000051,22 (STREET_FEA 2921),STREET_FEA 2921,54,derived_50_100_ft,boston-sam,97380,22 Moreland St,Moreland St,42.32586167,-71.08195960,Kearsarge Avenue & Winthrop Street,240,nearest_address
2341,18JH122,Dudley St,334-342 Dudley St,IS,820454400000,1810740023,,,MANUAL,,,,,BWSC,SERVICE_AR=SL; CROSS_STRE=4313; METERED_FL=U; PLACEMENT=MIGRATED,18JH122,,,KE,KEK81-A,2011,,,,1,,1177632000000,palaciolv,1231718400000,{C644D6E8-D1ED-558F-84C5-31F121035D10},-71.076578201999951,42.327163105000068,366 (STREET_FEA 1390),STREET_FEA 1390,93,derived_50_100_ft,boston-sam,164557,334-342 Dudley St,Dudley St,42.32741363,-71.07650323,Dudley Street & Vine Street,25,nearest_address
2350,19JH182,Dearborn St,2 Dearborn St,IS,1020038400000,1910740279,,,GPS,,,,,BWSC,SERVICE_AR=SL; CROSS_STRE=159; METERED_FL=U; PLACEMENT=MIGRATED,19JH182,,,MU,MUCENT,2001,,,,1,,1177632000000,mulline,1231718400000,{61712567-44DD-54DA-8930-750F3FB7BEE3},-71.078312003999940,42.330125151000061,STREET_FEA 228,STREET_FEA 228,101,derived_100_150_ft,boston-sam,340952,2 Dearborn St,Dearborn St,42.32989977,-71.07852896,Albany Street & Webber Street,90,nearest_address
2355,20JH48,Harrison Ave,857 Harrison Ave,IS,,2010740242,,,MANUAL,,,,,BWSC,SERVICE_AR=SL; CROSS_STRE=2032; METERED_FL=U; PLACEMENT=MIGRATED,20JH48,,,KE,KEK81-A,1994,,,,1,,1177632000000,chalmersh,1225152000000,{BE30A6BB-18A8-5307-97BD-2370EE56439A},-71.075920028999974,42.334670817000074,59 (STREET_FEA 3095),STREET_FEA 3095,43,derived_0_50_ft,boston-sam,70069,857 Harrison Ave,Harrison Ave,42.33471867,-71.07577460,Harrison Avenue & Northampton Street,95,nearest_address
2373,16IH170,Humboldt Ave,112 Humboldt Ave,IS,,1609740004,,,MANUAL,,,,,BWSC,SERVICE_AR=SH; CROSS_STRE=1291; METERED_FL=U; PLACEMENT=MIGRATED,16IH170,,,MH,MH129,1970,,,,1,,1177632000000,chalmersh,1240531200000,{221BA43E-D476-5456-A34A-F3265D341124},-71.086702576999983,42.316362912000045,112 (STREET_FEA 2229),STREET_FEA 2229,47,derived_0_50_ft,boston-sam,166388,112 Humboldt Ave,Humboldt Ave,42.31642410,-71.08654988,Deckard Street & Harrishof Street,56,nearest_address
2396,18HH168,Beech Glen St,3-5 Beech Glen St,IS,,1808740056,,,MANUAL,,,,,BWSC,SERVICE_AR=SH; CROSS_STRE=467; METERED_FL=U; PLACEMENT=MIGRATED,18HH168,,,KE,KEK81-A,1994,,,,1,,1177632000000,palaciolv,1231718400000,{3F7029B6-BE51-5F6A-8AFD-8113B18AA837},-71.095413145999942,42.326098049000052,51 OPP (STREET_FEA 1702),STREET_FEA 1702,62,derived_50_100_ft,boston-sam,13332,3-5 Beech Glen St,Beech Glen St,42.32597537,-71.09557502,Beech Glen Street & Fort Avenue,28,nearest_address
2401,15IH134,Georgia St,89-91 Georgia St,IS,,1509740016,,,MANUAL,,,,,BWSC,SERVICE_AR=SH; CROSS_STRE=2897; METERED_FL=U; PLACEMENT=MIGRATED,15IH134,,,DA,ADB-84-B,1997,,,,1,,1177632000000,chalmersh,1233532800000,{48E76B40-D6E7-5AC2-96E4-EA2E47AD0E5C},-71.085746067999935,42.310603162000064,87 (STREET_FEA 2897),STREET_FEA 2897,43,derived_0_50_ft,boston-sam,63500,89-91 Georgia St,Georgia St,42.31071866,-71.08578060,Georgia Street & Montana Street,41,nearest_address
2403,19IH18,Highland St,34 Highland St,IS,,1909740166,,,MANUAL,,,,,BWSC,SERVICE_AR=SH; CROSS_STRE=2143; METERED_FL=U; PLACEMENT=MIGRATED,19IH18,,,MU,MUCENT,1993,,,,1,,1177632000000,mulline,1231459200000,{D156D5F7-73E9-562D-AE7D-6087B63DCF95},-71.091537954999978,42.328927026000031,6 (STREET_FEA 3084),STREET_FEA 3084,92,derived_50_100_ft,boston-sam,73780,34 Highland St,Highland St,42.32875867,-71.09179060,Highland Street & Norfolk Street,74,nearest_address
2409,18HH176,Highland St,122 Highland St,IS,,1808740059,,,MANUAL,,,,,BWSC,SERVICE_AR=SH; CROSS_STRE=1702; METERED_FL=U; PLACEMENT=MIGRATED,18HH176,,,MU,MUCENT,1991,,,,1,,1177632000000,palaciolv,1231718400000,{31074C8E-D24B-5D22-9201-6B0B71B7D2B7},-71.093120696999961,42.325992818000032,120 (STREET_FEA 2143),STREET_FEA 2143,76,derived_50_100_ft,boston-sam,438127,122 Highland St,Highland St,42.32579396,-71.09303886,Highland Park Avenue & Highland Park Street,305,nearest_address
2414,15IH96,Blue Hill Ave,495-505 Blue Hill Ave,IS,1115942400000,1509740104,,,MANUAL,,,,,BWSC,SERVICE_AR=SH; CROSS_STRE=948; METERED_FL=U; PLACEMENT=MIGRATED,15IH96,,,MU,MUCENT,2000,,,,1,,1177632000000,chalmersh,1233532800000,{70DDB8DD-0107-5A05-B1D4-CA71370FC6F9},-71.083591759999933,42.308163309000065,493 (STREET_FEA 568),STREET_FEA 568,90,derived_50_100_ft,boston-sam,162150,495-505 Blue Hill Ave,Blue Hill Ave,42.30808689,-71.08390903,Blue Hill Avenue & Washington Street,80,nearest_address
2418,20JH14,Newcomb St,11 Newcomb St,IS,725846400000,2010740285,,,MANUAL,,,,,BWSC,SERVICE_AR=SL; CROSS_STRE=4400; METERED_FL=U; PLACEMENT=MIGRATED,20JH14,,,MU,MUCENT,2003,,,,1,,1177632000000,chalmersh,1225152000000,{BF0A9708-86F8-5673-9A3D-9E629EAF07BE},-71.078655883999943,42.334131658000047,10 (STREET_FEA 3054),STREET_FEA 3054,82,derived_50_100_ft,boston-sam,102028,11 Newcomb St,Newcomb St,42.33434867,-71.07857060,Newcomb Street & Reed Street,209,nearest_address
2419,17IH122,Kensington St,10 Kensington St,IS,,1709740049,,,GPS,,,,,BWSC,SERVICE_AR=SH; CROSS_STRE=4398; METERED_FL=U; PLACEMENT=MIGRATED,17IH122,,,US,USSEN,1980,,,,1,,1177632000000,palaciolv,1231459200000,{516E9009-48C2-57B2-89BA-8827F613E4BF},-71.090615036999964,42.321055237000053,STREET_FEA 2729,STREET_FEA 2729,124,derived_100_150_ft,boston-sam,81355,10 Kensington St,Kensington St,42.32071866,-71.09068060,Elmore Street & Kensington Street,308,nearest_address
2444,19IH58,King Street,Near King Street & Malcolm X Boulevard,IS,,1909740052,,,MANUAL,,,,,BWSC,SERVICE_AR=SL; CROSS_STRE=3698; METERED_FL=U; PLACEMENT=MIGRATED,19IH58,,,MU,MUCENT,2005,,,,1,,1177632000000,mulline,1231459200000,{AE1850B7-EC3F-5C20-9B79-DC2BC758F7CE},-71.091442023999946,42.331337483000027,STREET_FEA 5798,STREET_FEA 5798,260,intersection_preferred_150_plus_ft,boston-sam,347576,75 Malcolm X Blvd,Malcolm X Blvd,42.33191769,-71.09088009,King Street & Malcolm X Boulevard,397,nearest_intersection
2457,17JH194,E Cottage St,42 E Cottage St,IS,,1710740022,,,MANUAL,,,,,BWSC,SERVICE_AR=SL; CROSS_STRE=426; METERED_FL=U; PLACEMENT=MIGRATED,17JH194,,,DA,ADB-84-B,1998,,,,1,,1177632000000,blundonr,1244505600000,{87D340D6-47D3-5A4D-B24E-404F326ADD3B},-71.069085535999989,42.321474737000074,41 OPP (STREET_FEA 8),STREET_FEA 8,40,derived_0_50_ft,boston-sam,420827,42 E Cottage St,E Cottage St,42.32153969,-71.06896687,Batchelder Street & East Cottage Street,31,nearest_address
2488,20JH229,Massachusetts Ave,659 Massachusetts Ave,IS,,2010740175,,,GPS,,,,,BWSC,SERVICE_AR=SL; CROSS_STRE=2746; METERED_FL=U; PLACEMENT=MIGRATED,20JH229,,,MU,MUCENT,1992,,,,1,,1177632000000,blundonr,1225324800000,{07C2A6E3-0EC6-50C6-AEA4-21BA70D7E129},-71.076796485999978,42.335908058000030,STREET_FEA 4759,STREET_FEA 4759,43,derived_0_50_ft,boston-sam,167475,659 Massachusetts Ave,Massachusetts Ave,42.33587021,-71.07664567,Parmelee Street & Trask Street,21,nearest_address
2494,16JH001,Beauford Ln,6 Beauford Ln,IS,,1610740003,,,MANUAL,,,,,BWSC,SERVICE_AR=SH; CROSS_STRE=1237; METERED_FL=U; PLACEMENT=MIGRATED,16JH001,,,US,USMET250,1988,,,,1,,1177632000000,palaciolv,1231372800000,{B3131831-7ACD-5AEB-8877-A51920AE59D0},-71.076305229999946,42.316317493000042,6-8 (STREET_FEA 453),STREET_FEA 453,33,derived_0_50_ft,boston-sam,385116,6 Beauford Ln,Beauford Ln,42.31639866,-71.07636059,Beauford Lane & Dacia Street,147,nearest_address
2509,17IH85,Harold St,30 Harold St,IS,757382400000,1709740119,,,MANUAL,,,,,BWSC,SERVICE_AR=SH; CROSS_STRE=2974; METERED_FL=U; PLACEMENT=MIGRATED,17IH85,,,KE,KEK81-A,1994,,,,1,,1177632000000,palaciolv,1231459200000,{AE30A9EE-E28F-509B-BE01-71B039125C35},-71.088463684999965,42.319346622000069,30 (STREET_FEA 2023),STREET_FEA 2023,38,derived_0_50_ft,boston-sam,69609,30 Harold St,Harold St,42.31924866,-71.08851060,Harold Park & Harold Street,218,nearest_address
2515,17IH190,Mills St,9 Mills St,IS,1023667200000,1709740028,,,GPS,,,,,BWSC,SERVICE_AR=SH; CROSS_STRE=1241; METERED_FL=U; PLACEMENT=MIGRATED,17IH190,,,MU,MUCENT,2002,,,,1,,1177632000000,palaciolv,1231459200000,{6FE6D607-B86C-5AED-9B9A-8050B15A4D19},-71.083482383999979,42.321333094000067,9 (STREET_FEA 2858),STREET_FEA 2858,23,derived_0_50_ft,boston-sam,95614,9 Mills St,Mills St,42.32137867,-71.08354060,Mills Street & Rockland Street,218,nearest_address
2517,18JH74,Blue Hill Ave,1-5A Blue Hill Ave,IS,,1810740114,,,MANUAL,,,,,BWSC,SERVICE_AR=SH; CROSS_STRE=1390; METERED_FL=U; PLACEMENT=MIGRATED,18JH74,,,US,USMET250,1990,,,,1,,1177632000000,mulline,1231372800000,{327E40B3-DBFF-5543-A077-653464D9D2E1},-71.075150254999983,42.325026052000055,1-5A OPP (STREET_FEA 568),STREET_FEA 568,64,derived_50_100_ft,boston-sam,16107,1-5A Blue Hill Ave,Blue Hill Ave,42.32515267,-71.07531459,Dudley Street & Magazine Street,89,nearest_address
2518,15IH152,Crawford St,5 Crawford St,IS,1161388800000,1509740015,,,MANUAL,,,,,BWSC,SERVICE_AR=SH; CROSS_STRE=4385; METERED_FL=U; PLACEMENT=MIGRATED,15IH152,,,MU,MUCENT,2003,,,,1,,1177632000000,blundonr,1238371200000,{CFFB8FE1-0623-5B19-B024-17F8FE520C90},-71.083545607999952,42.310609832000068,5 (STREET_FEA 1176),STREET_FEA 1176,100,derived_50_100_ft,boston-sam,350382,5 Crawford St,Crawford St,42.31071737,-71.08388948,Crawford Street & Warren Street,79,nearest_address
2519,19HH142,Columbus Avenue,Near Columbus Avenue & Malcolm X Boulevard,IS,,1908740055,,,GPS,,,,,BWSC,SERVICE_AR=SH; CROSS_STRE=5798; METERED_FL=U; PLACEMENT=MIGRATED,19HH142,,,MU,MUCENT,1987,,,,1,,1177632000000,mulline,1231372800000,{7BB00330-0F66-50B8-803D-913D66CF09AB},-71.094415321999975,42.331270732000064,STREET_FEA 4216,STREET_FEA 4216,163,intersection_preferred_150_plus_ft,boston-sam,163660,1170 Columbus Ave,Columbus Ave,42.33083711,-71.09457114,Columbus Avenue & Malcolm X Boulevard,52,nearest_intersection
2524,18JH134,Forest St,17 Forest St,IS,,1810740016,,,MANUAL,,,,,BWSC,SERVICE_AR=SH; CROSS_STRE=2952; METERED_FL=U; PLACEMENT=MIGRATED,18JH134,,,KE,KEK81-A,1994,,,,1,,1177632000000,palaciolv,1231718400000,{295078F6-5FC5-5A7C-A9B3-4A3170B39C65},-71.078547858999968,42.327253306000046,15 (STREET_FEA 1692),STREET_FEA 1692,38,derived_0_50_ft,boston-sam,59279,17 Forest St,Forest St,42.32716867,-71.07863060,Adams Street & Forest Street,105,nearest_address
2528,18JH90,Albion St,30 Albion St,IS,,1810740228,,,MANUAL,,,,,BWSC,SERVICE_AR=SL; CROSS_STRE=2725; METERED_FL=U; PLACEMENT=MIGRATED,18JH90,,,MU,MUCENT,2005,,,,1,,1177632000000,mulline,1231372800000,{46D5F17A-9A36-5B5D-8003-84BDBCB2E055},-71.070626985999979,42.322425074000080,30 OPP (STREET_FEA 1039),STREET_FEA 1039,17,derived_0_50_ft,boston-sam,1719,30 Albion St,Albion St,42.32239867,-71.07068059,Clifton Street & Marshfield Street,23,nearest_address
2541,19JH14,Eustis St,159-161 Eustis St,IS,,1910740213,,,MANUAL,,,,,BWSC,SERVICE_AR=SL; CROSS_STRE=3163; METERED_FL=U; PLACEMENT=MIGRATED,19JH14,,,MU,MUCENT,1976,,,,1,,1177632000000,blundonr,1255478400000,{1ECC7E1E-584A-51CB-B73E-3F1F1D0F4D17},-71.077421602999948,42.328553647000035,146-158 OP (STREET_FEA 1564),STREET_FEA 1564,26,derived_0_50_ft,boston-sam,437768,159-161 Eustis St,Eustis St,42.32849608,-71.07747834,Eustis Street & Orchard Park Street,118,nearest_address
2545,17JH63,Blue Hill Ave,106 Blue Hill Ave,IS,,1710740024,,,MANUAL,,,,,BWSC,SERVICE_AR=SH; CROSS_STRE=4628; METERED_FL=U; PLACEMENT=MIGRATED,17JH63,,,US,USMET250,1998,,,,1,,1177632000000,palaciolv,1231718400000,{C67E56F3-20E9-51E2-8E68-56799EABB336},-71.077335928999958,42.321387913000081,108 (STREET_FEA 568),STREET_FEA 568,44,derived_0_50_ft,boston-sam,16128,106 Blue Hill Ave,Blue Hill Ave,42.32147867,-71.07723059,Blue Hill Avenue & Irwin Avenue,60,nearest_address
2546,20JH32,Reed St,5-15 Reed St,IS,,2010740248,,,MANUAL,,,,,BWSC,SERVICE_AR=SL; CROSS_STRE=4204; METERED_FL=U; PLACEMENT=MIGRATED,20JH32,,,KE,KEK81-A,1994,,,,1,,1177632000000,chalmersh,1225152000000,{8CDF4E3E-F2C8-58EE-8487-9C21AE281632},-71.076757557999940,42.334576870000035,94 (STREET_FEA 3095),STREET_FEA 3095,96,derived_50_100_ft,boston-sam,419553,5-15 Reed St,Reed St,42.33479283,-71.07696007,Gage Street & Northampton Street,172,nearest_address
2549,16IH98,Harold St,174-176 Harold St,IS,,1609740055,,,MANUAL,,,,,BWSC,SERVICE_AR=SH; CROSS_STRE=2220; METERED_FL=U; PLACEMENT=MIGRATED,16IH98,,,MU,MUCENT,1991,,,,1,,1177632000000,chalmersh,1240531200000,{FBD4C013-7EB5-5522-9EDE-7FD3FCA398EE},-71.090875453999956,42.315014793000046,177 OPP (STREET_FEA 2023),STREET_FEA 2023,39,derived_0_50_ft,boston-sam,420733,174-176 Harold St,Harold St,42.31494796,-71.09076284,Harold Street & Howland Street,106,nearest_address
2552,20JH40,Shawmut Ave,575-585 Shawmut Ave,IS,,2010740130,,,MANUAL,,,,,BWSC,SERVICE_AR=SL; CROSS_STRE=795; METERED_FL=U; PLACEMENT=MIGRATED,20JH40,,,DA,ADB-84-B,2001,,,,1,,1177632000000,chalmersh,1225152000000,{5E42DA5E-5F98-521E-98AA-CF98C542682C},-71.079443194999953,42.336505171000056,575 (STREET_FEA 3868),STREET_FEA 3868,77,derived_50_100_ft,boston-sam,169656,575-585 Shawmut Ave,Shawmut Ave,42.33641203,-71.07970101,Camden Street & Shawmut Avenue,51,nearest_address
2563,19JH132,Pompeii St,17 Pompeii St,IS,,1910740148,,,GIS,,,,,BWSC,SERVICE_AR=SL; CROSS_STRE=2744; METERED_FL=U; PLACEMENT=MIGRATED,19JH132,,,KE,KEK81-A,1900,,,,1,,1177632000000,blundonr,1255478400000,{86FB237C-ABCF-526C-A172-5867093ED3DA},-71.070381920999978,42.329776074000051,15-17 (STREET_FEA 3344),STREET_FEA 3344,28,derived_0_50_ft,boston-sam,111470,17 Pompeii St,Pompeii St,42.32984867,-71.07042059,Massachusetts Avenue & Pompeii Street,230,nearest_address
2574,17JH74,W Cottage St,84 W Cottage St,IS,,1710740062,,,GPS,,,,,BWSC,SERVICE_AR=SH; CROSS_STRE=1792; METERED_FL=U; PLACEMENT=MIGRATED,17JH74,,,MU,MUCENT,2003,,,,1,,1177632000000,palaciolv,1231718400000,{F7CA15D8-53DC-5F9B-8C81-46287A0169F1},-71.076760068999988,42.320422834000055,91 OPP (STREET_FEA 78),STREET_FEA 78,67,derived_50_100_ft,boston-sam,43728,84 W Cottage St,W Cottage St,42.32041740,-71.07651278,Gayland Street & West Cottage Street,30,nearest_address
2584,18HH120,Highland St,235 Highland St,IS,,1808740161,,,GPS,,,,,BWSC,SERVICE_AR=SH; CROSS_STRE=2693; METERED_FL=U; PLACEMENT=MIGRATED,18HH120,,,KE,KEK81-A,1994,,,,1,,1177632000000,blundonr,1255478400000,{A2FFC165-D189-526B-89E5-21164EE37B0B},-71.095475105999981,42.323228421000067,STREET_FEA 2143,STREET_FEA 2143,105,derived_100_150_ft,boston-sam,73741,235 Highland St,Highland St,42.32346867,-71.09526060,Highland Street & Marcella Street,22,nearest_address
2595,17IH114,Bower St,50 Bower St,IS,,1709740241,,,GPS,,,,,BWSC,SERVICE_AR=SH; CROSS_STRE=2229; METERED_FL=U; PLACEMENT=MIGRATED,17IH114,,,DA,ADB-84-B,1990,,,,1,,1177632000000,palaciolv,1231459200000,{18B9ED0C-C5A4-51CE-9D7A-6C60F3FA7370},-71.086822497999947,42.319416743000033,50-52 (STREET_FEA 2729),STREET_FEA 2729,65,derived_50_100_ft,boston-sam,373914,50 Bower St,Bower St,42.31954867,-71.08666060,Harold Park & Harold Street,229,nearest_address
2599,17JH122,Dromey St,19 Dromey St,IS,,1710740132,,,MANUAL,,,,,BWSC,SERVICE_AR=SH; CROSS_STRE=2347; METERED_FL=U; PLACEMENT=MIGRATED,17JH122,,,DA,ADB-84-B,1991,,,,1,,1177632000000,blundonr,1244505600000,{CD45698F-339F-54FA-9556-42FB4D7EA2DB},-71.075126522999938,42.318774445000031,19 (STREET_FEA 1383),STREET_FEA 1383,52,derived_50_100_ft,boston-sam,49562,19 Dromey St,Dromey St,42.31868867,-71.07528059,Dromey Street & Judson Street,91,nearest_address
